City,Latitude,Longitude,Day,Hour,Min,Message
The North Pole,80,179.999,9,13,05,
Anadyr,64.73877,177.51322,9,13,06,
Apia,-13.83040,-171.76850,9,13,06,
Nuku'alofa,-21.13593,-175.20400,9,13,06,
Suva,-18.14553,178.42437,9,13,06,
Majuro,7.06932,171.29218,9,13,06,
Honiara,-9.43533,159.96330,9,13,06,
Port Vila,-17.73416,168.32411,9,13,06,
Nouméa,-22.27126,166.43965,9,13,06,
Auckland,-36.84847,174.76217,9,13,06,
Wellington,-41.29046,174.78206,9,13,06,
Christchurch,-43.53312,172.63340,9,13,06,
Hobart,-42.88579,147.33026,9,13,06,
Melbourne,-37.82257,144.96893,9,13,06,
Canberra,-35.30727,149.12514,9,13,06,
Sydney,-33.85675,151.21530,9,13,06,
Newcastle,-32.92898,151.78036,9,13,06,
Gold Coast,-28.00608,153.42937,9,13,06,
Brisbane,-27.46901,153.02350,9,13,06,
Cairns,-16.92579,145.77108,9,13,06,
Port Moresby,-9.43692,147.21014,9,13,06,
Guam,13.47387,144.75164,9,13,06,
Hiroshima,34.39344,132.45275,9,13,06,
Kobe,34.68265,135.18670,9,13,06,
Sakai,34.57566,135.48841,9,13,06,
Osaka,34.68687,135.52596,9,13,06,
Kyoto,35.02521,135.76208,9,13,06,
Nagoya,35.18487,136.89962,9,13,06,
Yokohama,35.46594,139.62232,9,13,06,
Kawasaki,35.53146,139.69702,9,13,06,
Tokyo,35.71005,139.8107,9,13,07,
Saitama,35.85726,139.64871,9,13,07,
Sendai,38.25999,140.88205,9,13,07,
Petropavlovsk-Kamchatsky,53.06688,158.60719,9,13,07,
Sapporo,43.06110,141.35631,9,13,07,
Vladivostok,43.11125,131.88136,9,13,07,
Yakutsk,62.02715,129.73218,9,13,07,
Harbin,45.74703,126.62738,9,13,07,
Shenyang,41.80443,123.42784,9,13,07,
Pyongyang,39.03209,125.75286,9,13,07,
Seoul,37.51257,127.10253,9,13,07,
Busan,35.10111,129.03229,9,13,07,
Fukuoka,33.58486,130.38333,9,13,07,
Okinawa,26.21699,127.71936,9,13,07,
Adelaide,-34.92863,138.59983,9,13,07,
Alice Springs,-23.69483,133.88201,9,13,07,
Darwin,-12.46532,130.84498,9,13,07,
Manila,14.59436,120.97027,9,13,07,
Kaohsiung,22.63947,120.30261,9,13,07,
Taipei,25.03390,121.56450,9,13,07,
Xiamen,24.49029,118.10225,9,13,07,
Quanzhou,24.91395,118.57944,9,13,07,
Fuzhou,26.08517,119.29038,9,13,07,
Hangzhou,30.23879,120.13963,9,13,07,
Shanghai,31.23353,121.49945,9,13,07,
Suzhou,31.31135,120.62034,9,13,07,
Wuxi,31.54984,120.30038,9,13,07,
Nanjing,32.07192,118.78765,9,13,07,
Qingdao,36.06545,120.30654,9,13,07,
Tianjin,39.14154,117.17506,9,13,07,
Tiananmen Square,39.90454,116.39125,9,13,08,I am looking forward to seeing nothing happening!
Beijing,39.91645,116.39112,9,13,08,
Shijiazhuang,38.04072,114.51663,9,13,08,
Zhengzhou,34.76125,113.65788,9,13,08,
Luoyang,34.64198,112.44742,9,13,08,
Wuhan,30.53920,114.35076,9,13,08,
Dongguan,23.00960,113.74075,9,13,08,
Guangzhou,23.10648,113.31846,9,13,08,
Foshan,23.01093,113.12076,9,13,08,
Shenzhen,22.53302,114.04982,9,13,08,
Hong Kong,22.28529,114.15930,9,13,08,
Macau,22.18985,113.54404,9,13,08,
Surabaya,-7.248334,112.73117,9,13,08,
Perth,-31.95115,115.85987,9,13,08,
Christmas Island,-10.42819,105.66402,9,13,08,
Jakarta,-6.17541,106.82711,9,13,08,
Singapore,1.28396,103.85924,9,13,08,
Kuala Lumpur,3.15806,101.71171,9,13,08,
Ho Chi Minh City,10.75325,106.66118,9,13,08,
Phnom Penh,11.56239,104.93183,9,13,08,
Hanoi,21.03429,105.84011,9,13,08,
Chongqing,29.56209,106.54453,9,13,08,
Xi'an,34.38407,109.27248,9,13,08,
Ulaanbaatar,47.91872,106.91164,9,13,08,
Irkutsk,52.29357,104.28612,9,13,08,
Chengdu,30.65736,104.05985,9,13,08,
Kunming,25.05335,102.69750,9,13,08,
Bangkok,13.74656,100.49309,9,13,08,
Rangoon,16.79837,96.14955,9,13,08,
Chittagong,22.33381,91.83010,9,13,08,
Dhaka,23.73508,90.42591,9,13,08,
Calcutta,22.54482,88.34237,9,13,08,
Lhasa,29.65552,91.11259,9,13,08,
Krasnoyarsk,56.00874,92.87029,9,13,08,
Norilsk,69.35473,88.19059,9,13,08,
Novosibirsk,54.98304,82.89590,9,13,08,
Ürümqi,43.79683,87.59908,9,13,08,
Kathmandu,27.70063,85.31183,9,13,08,
Lucknow,26.85883,80.91786,9,13,08,
Chennai,13.07970,80.28619,9,13,08,
Colombo,6.93637,79.84083,9,13,08,
Malé,4.17742,73.51237,9,13,08,
Bangalore,12.96274,77.57598,9,13,08,
Hyderabad,17.36160,78.47464,9,13,08,
Pune,18.51944,73.85532,9,13,08,
Mumbai,18.96958,72.81926,9,13,08,
Surat,21.20490,72.84105,9,13,08,
Ahmedabad,23.02643,72.60102,9,13,08,
Jaipur,26.92575,75.82361,9,13,08,
Agra,27.17501,78.04213,9,13,08,
New Delhi,28.61285,77.23110,9,13,08,
Delhi,28.65586,77.24093,9,13,08,
Lahore,31.57727,74.33630,9,13,08,
Islamabad,33.73165,73.09718,9,13,08,
Bishkek,42.87848,74.60387,9,13,08,
Almaty,43.23993,76.92726,9,13,08,Great Success!
Astana,51.12580,71.44641,9,13,08,Great Success!
Omsk,54.99017,73.36696,9,13,08,
Yekaterinburg,56.83920,60.61658,9,13,08,
Chelyabinsk,55.15860,61.40264,9,13,08,
Baikonur,45.92034,63.34287,9,13,08,
Tashkent,41.31123,69.27972,9,13,08,
Dushanbe,38.57626,68.78362,9,13,08,
Kabul,34.53567,69.19055,9,13,08,
Karachi,24.84335,67.05415,9,13,08,
Mashhad,36.28795,59.61565,9,13,08,
Ashgabat,37.88114,58.38236,9,13,08,
Muscat,23.59885,58.42243,9,13,08,
Port Louis,-20.16922,57.51014,9,13,08,
Victoria,-4.62309,55.45511,9,13,08,
Dubai,25.19711,55.27436,9,13,08,
Abu Dhabi,24.48350,54.60692,9,13,08,
Doha,25.29143,51.53361,9,13,08,
Manama,26.22201,50.58738,9,13,08,
Shiraz,29.60960,52.54335,9,13,08,
Isfahan,32.65728,51.67753,9,13,08,
Tehran,35.69980,51.33797,9,13,08,
Baku,40.35985,49.83556,9,13,08,
Samara,53.18554,50.08757,9,13,08,
Ufa,54.73965,55.95076,9,13,08,
Perm,58.00847,56.21807,9,13,08,
Kazan,55.79942,49.10623,9,13,08,
Nizhny Novgorod,56.33052,44.00940,9,13,08,
Volgograd,48.70939,44.51361,9,13,08,
Tbilisi,41.69342,44.80143,9,13,08,
Yerevan,40.18564,44.51504,9,13,08,
Stepanakert,39.81767,46.75294,9,13,08,
Tabriz,38.07344,46.30099,9,13,08,
Mosul,36.35765,43.14172,9,13,08,
Baghdad,33.30850,44.38905,9,13,08,
Babylon,32.54223,44.42087,9,13,08,
Uruk,31.32532,45.63944,9,13,08,
Ur,30.96273,46.10317,9,13,08,
Kuwait,29.37941,47.97502,9,13,08,
Riyadh,24.71134,46.67435,9,13,08,
Mogadishu,2.04106,45.33678,9,13,08,
Djibouti,11.59957,43.14708,9,13,08,
Aden,12.77918,45.04942,9,13,08,
Sana'a,15.35127,44.21594,9,13,08,
Mecca,21.42250,39.82617,9,13,08,
Medina,24.46893,39.61096,9,13,08,
Jeddah,21.73397,39.08286,9,13,08,
Asmara,15.32839,38.92593,9,13,08,
Addis Ababa,9.01044,38.76148,9,13,08,
Nairobi,-1.28339,36.82072,9,13,08,
Mombasa,-4.05731,39.66049,9,13,08,
Zanzibar,-6.16117,39.18897,9,13,08,
Dar es Salaam,-6.822914,39.28406,9,13,08,
Antananarivo,-18.90318,47.52125,9,13,08,
Maputo,-25.96929,32.57313,9,13,08,
Durban,-29.85862,31.02637,9,13,08,
Port Elizabeth,-33.96187,25.62029,9,13,08,
Bloemfontein,-29.11518,26.21904,9,13,08,
Johannesburg,-26.20550,28.04687,9,13,08,
Pretoria,-25.74638,28.18805,9,13,08,
Gaborone,-24.64502,25.90735,9,13,08,
Harare,-17.82828,31.05342,9,13,08,
Lusaka,-15.36951,28.27265,9,13,08,
Bujumbura,-3.38332,29.37375,9,13,08,
Kigali,-1.95518,30.08598,9,13,08,
Kampala,0.31561,32.56860,9,13,08,
Juba,4.84654,31.58457,9,13,08,
Khartoum,15.56320,32.55484,9,13,08,
Luxor,25.71915,32.65668,9,13,08,
Suez,29.93361,32.56211,9,13,08,
Cairo,30.04773,31.23366,9,13,08,
Giza,29.97923,31.13418,9,13,08,
Alexandria,31.21422,29.89131,9,13,08,
Port Said,31.26773,32.30404,9,13,08,
Gaza,31.51524,34.45578,9,13,08,
Tel Aviv,32.05885,34.76201,9,13,08,
Bethlehem,31.70436,35.20727,9,13,08,Merry Christmas Jesus!
Jerusalem,31.77671,35.23449,9,13,08,
Jericho,31.87085,35.43942,9,13,08,
Amman,31.95427,35.93537,9,13,08,
Haifa,32.81755,34.99968,9,13,08,
Tyre,33.27003,35.19680,9,13,08,
Sidon,33.56715,35.37092,9,13,08,
Beirut,33.89665,35.50455,9,13,08,
Byblos,34.12004,35.64644,9,13,08,
Damascus,33.51379,36.27650,9,13,08,
Homs,34.72361,36.71447,9,13,08,
Aleppo,36.19942,37.16294,9,13,08,
Antioch,36.20260,36.16036,9,13,08,
Nicosia,35.17432,33.37098,9,13,08,
Ankara,39.92513,32.83697,9,13,08,
Sebastopol,44.61589,33.52411,9,13,08,
Sochi,43.40200,39.95591,9,13,08,
Krasnodar,45.02440,38.97139,9,13,08,
Rostov-on-Don,47.23794,39.69956,9,13,08,
Kharkiv,49.99001,36.22714,9,13,08,
Voronezh,51.65743,39.21622,9,13,08,
The Kremlin,55.74987,37.61571,9,13,09,
Moscow,55.75252,37.62310,9,13,09,
Murmansk,68.97470,33.06082,9,13,09,
Saint Petersburg,59.94041,30.31381,9,13,09,
Helsinki,60.17172,24.94139,9,13,09,
Tallinn,59.43735,24.74511,9,13,09,
Riga,56.94962,24.10541,9,13,09,
Vilnius,54.68537,25.28743,9,13,09,
Minsk,53.90257,27.56148,9,13,09,
Kiev,50.45577,30.52261,9,13,09,
Odessa,46.48727,30.73928,9,13,09,
Bucharest,44.42749,26.08737,9,13,09,
Istanbul,41.00849,28.98011,9,13,09,
Troy,39.95743,26.23889,9,13,09,
Izmir,38.42841,27.14535,9,13,09,
Ephesus,37.94109,27.34245,9,13,09,
Halicarnassus,37.03789,27.42411,9,13,09,
Rhodes,36.45102,28.22578,9,13,09,
Knossos,35.29788,25.16312,9,13,09,
Athens,37.97149,23.72662,9,13,09,
Thebes,38.32070,23.31764,9,13,09,
Corinth,37.90602,22.87921,9,13,09,
Argos,37.63060,22.72147,9,13,09,
Sparta,37.08225,22.42357,9,13,09,
Olympia,37.63790,21.63021,9,13,09,
Ithica,38.46067,20.63788,9,13,09,
Thessaloniki,40.63235,22.94086,9,13,09,
Sofia,42.69582,23.33283,9,13,09,
Pristina,42.65404,21.15316,9,13,09,
Skopje,41.99390,21.43062,9,13,09,
Tirana,41.32846,19.81831,9,13,09,
Podgorica,42.43078,19.26030,9,13,09,
Dubrovnik,42.64069,18.11031,9,13,09,
Sarajevo,43.85968,18.43125,9,13,09,
Belgrade,44.80513,20.47072,9,13,09,
Budapest,47.50718,19.04561,9,13,09,
Krakow,50.06148,19.93798,9,13,09,
Brest,52.09834,23.76242,9,13,09,
Warsaw,52.23186,21.00617,9,13,09,
Kaliningrad,54.70637,20.51194,9,13,09,
Stockholm,59.32682,18.07172,9,13,09,
Gothenburg,57.70712,11.96682,9,13,09,
Malmö,55.60478,12.98746,9,13,09,
Copenhagen,55.68054,12.58591,9,13,09,
Berlin,52.51629,13.37773,9,13,09,
Leipzig,51.33636,12.37251,9,13,09,
Dresden,51.05158,13.74063,9,13,09,
Prague,50.08770,14.42119,9,13,09,
Wroclaw,51.10962,17.03209,9,13,09,
Bratislava,48.14343,17.10070,9,13,09,
Vienna,48.20337,16.36922,9,13,09,
Zagreb,45.80945,15.97004,9,13,09,
Split,43.50919,16.44066,9,13,09,
Ljubliana,46.05075,14.50808,9,13,09,
Trieste,45.64919,13.77167,9,13,09,
Salzburg,47.80000,13.04355,9,13,09,
Venice,45.43411,12.33837,9,13,09,
Padua,45.40727,11.87527,9,13,09,
San Marino,43.93673,12.44648,9,13,09,
Bologna,44.49373,11.34310,9,13,09,
Verona,45.44356,10.99822,9,13,09,
Munich,48.13725,11.57555,9,13,09,
Nuremburg,49.45395,11.07729,9,13,09,
Hanover,52.37314,9.74011,9,13,09,
Hamburg,53.55044,9.99238,9,13,09,
Lübeck,53.86790,10.68504,9,13,09,
Billund,55.73063,9.11497,9,13,09,
Oslo,59.91268,10.74646,9,13,09,
Bergen,60.39942,5.31783,9,13,09,
Stavenger,58.97267,5.73235,9,13,09,
Bremen,53.07614,8.80820,9,13,09,
Dortmund,51.51129,7.46632,9,13,09,
Essen,51.45653,7.01116,9,13,09,
Düsseldorf,51.22826,6.77162,9,13,09,
Cologne,50.94139,6.95821,9,13,09,
Bonn,50.73433,7.09914,9,13,09,
Frankfurt,50.11043,8.68214,9,13,09,
Strasbourg,48.58191,7.75103,9,13,09,
Stuttgart,48.77861,9.17980,9,13,09,
Konstanz,47.66344,9.17546,9,13,09,
Vaduz,47.13959,9.52445,9,13,09,
Zurich,47.37005,8.54399,9,13,09,
Basel,47.55648,7.59239,9,13,09,
Bern,46.94799,7.44780,9,13,09,
Interlaken,46.68693,7.84963,9,13,09,
Lauterbrunnen,46.59832,7.90775,9,13,09,
Milan,45.46418,9.19190,9,13,09,
Genoa,44.40718,8.93403,9,13,09,
Pisa,43.72304,10.39662,9,13,09,
Florence,43.77319,11.25689,9,13,09,
Vatican City,41.90225,12.45726,9,13,09,Vey Nice!
Rome,41.89140,12.48658,9,13,10,
Ostia,41.75428,12.28816,9,13,10,
Laurentum,41.71106,12.34691,9,13,10,
Naples,40.85040,14.25761,9,13,10,
Pompeii,40.75195,14.48600,9,13,10,
Bari,41.12848,16.86644,9,13,10,
Gallipoli,40.05551,17.97831,9,13,10,
Croton,39.08161,17.13133,9,13,10,
Syracuse,37.06294,15.29438,9,13,10,
Valletta,35.89563,14.50829,9,13,10,
Palermo,38.11569,13.36145,9,13,10,
Ajaccio,41.91803,8.73855,9,13,10,
Cagliari,39.21600,9.11642,9,13,10,
Carthage,36.85774,10.32939,9,13,10,
Tunis,36.80639,10.18078,9,13,10,
Tripoli,32.89991,13.17573,9,13,10,
N'Djamena,12.11040,15.05080,9,13,10,
Bangui,4.36197,18.58293,9,13,10,
Windhoek,-22.56778,17.08730,9,13,10,
Cape Town,-33.92211,18.42507,9,13,10,
Luanda,-8.80783,13.22325,9,13,10,
Kinshasa,-4.37440,15.34544,9,13,10,
Brazzaville,-4.29114,15.26585,9,13,10,
Yaounde,3.86060,11.51589,9,13,10,
Libreville,0.39256,9.44243,9,13,10,
Abuja,9.06738,7.50988,9,13,10,
Lagos,6.47637,3.36942,9,13,10,
Porto-Novo,6.47314,2.61634,9,13,10,
Lomé,6.12991,1.21594,9,13,10,
Accra,5.54759,-0.19260,9,13,10,
Niamey,13.52217,2.13307,9,13,10,
Algiers,36.78459,3.06246,9,13,10,
Ibiza,38.90607,1.43640,9,13,10,
Palma,39.56746,2.64824,9,13,10,
Ciutadella,40.00168,3.83741,9,13,10,
Marseille,43.28398,5.37123,9,13,10,
Nice,43.69719,7.27566,9,13,10,
Monaco,43.73911,7.42808,9,13,10,
Turin,45.07098,7.68582,9,13,10,
Lausanne,46.52265,6.63518,9,13,10,
Geneva,46.20123,6.14821,9,13,10,
Grenoble,45.18898,5.72460,9,13,10,
Lyon,45.75785,4.83219,9,13,10,
Dijon,47.32132,5.04135,9,13,10,
Luxembourg,49.61060,6.13050,9,13,10,
Liege,50.64035,5.57188,9,13,10,
Maastricht,50.85137,5.69139,9,13,10,
Eindhoven,51.43937,5.47849,9,13,10,
Utrecht,52.09071,5.12137,9,13,10,
Amsterdam,52.37312,4.89255,9,13,10,
The Hague,52.07898,4.31931,9,13,10,
Rotterdam,51.92286,4.47950,9,13,10,
Antwerp,51.22122,4.39973,9,13,10,
Brussels,50.84174,4.36220,9,13,10,
Waterloo,50.67971,4.40440,9,13,10,
Charleroi,50.41164,4.44453,9,13,10,
Reims,49.26062,4.03000,9,13,10,
Ghent,51.05400,3.72291,9,13,10,
Bruges,51.20875,3.22437,9,13,10,
Roubaix,50.69073,3.17408,9,13,10,
Lille,50.63655,3.06993,9,13,10,
Dunkirk,51.03776,2.37638,9,13,10,
Paris,48.85301,2.34988,9,13,10,
Eiffel Tower,48.85826,2.29450,9,13,10,
Orleans,47.90184,1.91030,9,13,10,
Montpellier,43.61080,3.87664,9,13,10,
Perpignan,42.69844,2.89535,9,13,10,
Carcassonne,43.21804,2.35183,9,13,10,
Toulouse,43.60436,1.44336,9,13,10,
Andorra la Vella,42.50874,1.52942,9,13,10,
Barcelona,41.40359,2.17436,9,13,10,
Valencia,39.46979,-0.37722,9,13,10,
Cartagena,37.59937,-0.98408,9,13,10,
Murcia,37.98402,-1.12861,9,13,10,
Zaragoza,41.65466,-0.88196,9,13,10,
Pau,43.30425,-0.37483,9,13,10,
San Sebastian,43.32388,-1.97450,9,13,10,
Moliets Plage,43.85244,-1.39186,9,13,10,
Bordeaux,44.83763,-0.57777,9,13,10,
Poitiers,46.58323,0.34390,9,13,10,
Caen,49.18180,-0.37300,9,13,10,
Le Havre,49.49410,0.10784,9,13,10,
Rouen,49.44021,1.09493,9,13,10,
Boulogne-sur-mer,50.72596,1.61500,9,13,10,
Calais,50.95269,1.85455,9,13,10,
Dover,51.12513,1.31343,9,13,10,
Norwich,52.62699,1.30651,9,13,10,
Cambridge,52.20371,0.12403,9,13,10,
Epping,51.69371,0.11385,9,13,10,
Beckton,51.51430,0.06082,9,13,10,
Woolwich,51.49147,0.06667,9,13,10,
Dangleway,51.49978,0.00833,9,13,10,
Layton,51.55682,-0.00514,9,13,10,
Meridian Water,51.60809,-0.04685,9,13,10,
Enfield Lock,51.67029,-0.02870,9,13,10,
Cockfosters,51.65136,-0.14854,9,13,10,
City of London,51.50867,-0.08564,9,13,11,
Croydon,51.37976,-0.12379,9,13,11,
Bowis' Christmas Party,51.50329,-0.12764,9,13,12,Save some wine and cheese for me Bowis!
Chinatown,51.51178,-0.13115,9,13,12,
CLASSIFIED,51.52145,-0.13881,9,13,12,
Camden,51.53942,-0.14271,9,13,12,
Battersea Power Station Station,51.47962,-0.14300,9,13,12,
Huxley,51.4989,-0.17932,9,13,13,
Queensway,51.51048,-0.18725,9,13,13,
Paddington,51.51647,-0.17679,9,13,13,
Kensal Green,51.52913,-0.21755,9,13,14,
Acton,51.52341,-0.25975,9,13,15,
North Ealing,51.51753,-0.28885,9,13,15,
Ealing,51.51490,-0.30105,9,13,15,
Harrow-on-the-Hill,51.57939,-0.33698,9,13,15,
Watford,51.65848,-0.41428,9,13,15,
West Ruislip,51.56972,-0.43772,9,13,15,
A30,51.47550,-0.39577,9,13,15,
Wraysbury,51.45748,-0.55373,9,13,15,
Chesham,51.70520,-0.61109,9,13,15,
Northampton,52.23706,-0.90633,9,13,15,
Leicester,52.63123,-1.12518,9,13,15,
Nottingham,52.94706,-1.147003,9,13,15,
Sheffield,53.37837,-1.46216,9,13,15,
Leeds,53.79507,-1.54768,9,13,15,
York,53.96229,-1.08210,9,13,15,
Middlesborough,54.57931,-1.23442,9,13,15,
Newcastle,54.98959,-1.53276,9,13,15,
Berwick-upon-Tweed,55.77401,-2.01080,9,13,15,
Aberdeen,57.14378,-2.09925,9,13,15,
Lerwick,60.15313,-1.14272,9,13,15,
Kirkwall,58.98162,-2.96078,9,13,15,
Edinburgh,55.94866,-3.20042,9,13,15,
Glasgow,55.86002,-4.25789,9,13,15,
Carlisle,54.89094,-2.93327,9,13,15,
Manchester,53.47746,-2.23120,9,13,15,
Liverpool,53.40794,-2.97848,9,13,15,
Stoke,53.00800,-2.18106,9,13,15,
Ironbridge,52.62732,-2.48544,9,13,15,
Stourbridge Junction,52.44756,-2.13395,9,13,15,
Birmingham,52.47782,-1.89894,9,13,15,
Dorridge,52.37406,-1.75207,9,13,15,
Bicester,51.89262,-1.14920,9,13,15,
Oxford,51.75306,-1.25002,9,13,15,
Chocky City,51.06494,-1.79729,9,13,15,
Southampton,50.90770,-1.41364,9,13,15,
Portsmouth,50.79555,-1.10851,9,13,15,
Nantes,47.21618,-1.54939,9,13,15,
Rennes,48.11273,-1.67785,9,13,15,
St Helier,49.18387,-2.10565,9,13,15,
St Peter Port,49.45468,-2.53628,9,13,15,
Bath,51.38096,-2.35948,9,13,15,
REDACTED,51.89956,-2.12436,9,13,15,
Glozza,51.86734,-2.24674,9,13,15,
Wozza,52.19472,-2.20945,9,13,15,
Hereford,52.06124,-2.70851,9,13,15,
Lydney,51.71585,-2.53146,9,13,15,
Pilning,51.55655,-2.62712,9,13,15,
Brizzle,51.44983,-2.58087,9,13,15,
Taunton,51.02201,-3.10336,9,13,15,
Exeter,50.73741,-3.53254,9,13,15,
Brest,48.39147,-4.48481,9,13,15,
Okehampton,50.73246,-3.99633,9,13,15,
Barry Island,51.39230,-3.27374,9,13,15,
IKEA,51.46281,-3.18827,9,13,15,
Cardiff,51.47599,-3.17907,9,13,15,
Nantgarw,51.56343,-3.27503,9,13,15,
Pontypridd,51.60421,-3.33945,9,13,15,
Newport,51.58874,-3.00599,9,13,15,
Gilfach Fargoed,51.68416,-3.22733,9,13,15,
Ebbw Vale,51.77661,-3.20247,9,13,15,
Rhymney,51.75884,-3.28958,9,13,15,
Merthyr Tydfil,51.74566,-3.37683,9,13,15,
Aberdare,51.71451,-3.44185,9,13,15,
Treherbert,51.67202,-3.53599,9,13,15,
Bridgend,51.49563,-3.52445,9,13,15,
Port Talbot,51.60558,-3.81713,9,13,15,
Baglan,51.62299,-3.81336,9,13,16,
Neath,51.65891,-3.7986,9,13,17,
Neath College,51.66691,-3.81364,9,13,17,
Bryncoch,51.66836,-3.81675,9,13,17,
Swansea,51.62520,-3.94104,9,13,17,
Ffynone,51.61996,-3.96005,9,13,18,
Cockett,51.63618,-3.98187,9,13,19,
Sugar Loaf,52.08208,-3.68586,9,13,19,
Cynghordy,52.06145,-3.73936,9,13,19,
Llandeilo,51.87999,-4.01184,9,13,19,
Ffairfach,51.87275,-3.99298,9,13,19,
Carmarthen,51.85338,-4.30594,9,13,19,
Tenby,51.67179,-4.69475,9,13,19,
Fishguard,52.01075,-4.98601,9,13,19,
Milford Haven,51.71500,-5.03813,9,13,19,
Pembroke Dock,51.69393,-4.93798,9,13,19,
Pembroke,51.67661,-4.91998,9,13,19,
DELETED,50.41176,-5.06301,9,13,19,
Newquay,50.41153,-5.06313,9,13,20,
Penryn,50.17106,-5.12799,9,13,21,
Camborne,50.20885,-5.30623,9,13,22,
Penzance,50.12181,-5.53276,9,13,22,
Dublin,53.34978,-6.26028,9,13,22,
Belfast,54.59636,-5.93003,9,13,22,
Cork,51.90028,-8.47300,9,13,22,
Madrid,40.41541,-3.70738,9,13,22,
Granada,37.17677,-3.58990,9,13,22,
Cordoba,37.88475,-4.77640,9,13,22,
Fez,34.04727,-5.00538,9,13,22,
Gilbraltar,36.14390,-5.34953,9,13,22,
Tangier,35.78740,-5.81370,9,13,22,
Seville,37.37707,-5.98709,9,13,22,
Porto,41.14566,-8.61460,9,13,22,
Lisbon,38.70987,-9.13257,9,13,22,
Rabat,34.01769,-6.83690,9,13,22,
Casablanca,33.58032,-7.60547,9,13,22,
Marrakesh,31.62176,-7.98152,9,13,22,
Timbuktu,16.77234,-3.00721,9,13,22,
Bamako,12.64688,-7.99318,9,13,22,
Abidjan,5.31675,-4.01953,9,13,22,
Monrovia,6.31660,-10.80410,9,13,22,
Freetown,8.48933,-13.20885,9,13,22,
Conakry,9.53307,-13.68423,9,13,22,
Bissau,11.86319,-15.58432,9,13,22,
Banjul,13.45559,-16.57588,9,13,22,
Dakar,14.66956,-17.43201,9,13,22,
Nouakchott,18.09000,-15.97177,9,13,22,
Gran Canaria,28.14879,-15.42081,9,13,22,
Tenerife,28.46722,-16.24719,9,13,22,
Funchal,32.64723,-16.905089,13,22,
Reykjavik,64.14188,-21.92694,9,13,22,
Ponta Delgada,37.73946,-25.66841,9,13,22,
Praia,14.91644,-23.50944,9,13,22,
Recife,-8.05698,-34.88147,9,13,22,
Fortaleza,-3.72472,-38.52444,9,13,22,
Salvador,-12.97929,-38.51416,9,13,22,
Rio de Janeiro,-22.95191,-43.21046,9,13,22,
Belo Horizonte,-19.92274,-43.94515,9,13,22,
Brasilia,-15.79834,-47.87554,9,13,22,
Sao Paulo,-23.55130,-46.63449,9,13,22,
Porto Alegre,-30.03388,-51.23019,9,13,22,
Montevideo,-34.90652,-56.19966,9,13,22,
Halley VI,-75.56742,-25.51655,9,13,22,
Stanley,-51.69153,-57.86769,9,13,22,
Buenos Aires,-34.60837,-58.37218,9,13,22,
Asuncion,-25.28702,-57.65497,9,13,22,
Belem,-1.45510,-48.50327,9,13,22,
Kourou,5.24027,-52.76843,9,13,22,Good Luck Webb!
Paramaribo,5.82857,-55.15403,9,13,22,
Georgetown,6.80489,-58.15061,9,13,22,
Manaus,-3.13029,-60.02326,9,13,22,
Bridgetown,13.10500,-59.62262,9,13,22,
Port of Spain,10.65323,-61.51052,9,13,22,
St George's,12.04950,-61.75378,9,13,22,
Kingstown,13.15486,-61.22565,9,13,22,
Castries,14.01179,-60.98938,9,13,22,
Fort-de-France,14.60548,-61.06594,9,13,22,
Pointe-à-Pitre,16.23649,-61.53454,9,13,22,
St. John's,17.12261,-61.84190,9,13,22,
St. John's,47.57102,-52.70696,9,13,22,
Nuuk,64.17704,-51.74630,9,13,22,
Iquluit,63.75025,-68.52334,9,13,22,
Charlottetown,46.23496,-63.12612,9,13,22,
Halifax,44.64742,-63.58030,9,13,22,
Saint John,45.27364,-66.05805,9,13,22,
Hamilton,32.29482,-64.77707,9,13,22,
Charlotte Amalie,18.34060,-64.92976,9,13,22,
San Juan,18.46610,-66.11207,9,13,22,
Santo Domingo,18.47862,-69.86820,9,13,22,
Port-au-Prince,18.54326,-72.33880,9,13,22,
Oranjestad,12.52083,-70.03809,9,13,22,
Willemstad,12.10734,-68.93258,9,13,22,
Caracas,10.50722,-66.92683,9,13,22,
La Paz,-16.49657,-68.13736,9,13,22,
Sucre,-19.04788,-65.25960,9,13,22,
Cordoba,-31.42860,-64.18483,9,13,22,
Ushuaia,-54.80738,-68.30377,9,13,22,
Punta Arenas,-53.16264,-70.90807,9,13,22,
Santiago,-33.44293,-70.65385,9,13,22,
Cusco,-13.53176,-71.96836,9,13,22,
Machu Picchu,-13.16299,-72.54499,9,13,22,
Lima,-12.06829,-77.04120,9,13,22,
Quito,-0.22008,-78.51208,9,13,22,
Bogota,4.65775,-74.09333,9,13,22,
Medellin,6.24392,-75.57366,9,13,22,
Cartagena,10.42252,-75.53928,9,13,22,
Santiago de Cuba,20.02586,-75.81905,9,13,22,
Nassau,25.07772,-77.34047,9,13,22,
Kingston,17.97127,-76.79282,9,13,22,
Panama City,8.95248,-79.53477,9,13,22,
San José,9.93289,-84.07221,9,13,22,
Managua,12.15632,-86.27215,9,13,22,
Havana,23.13525,-82.35926,9,13,22,
Key West,24.55045,-81.80068,9,13,22,
Miami,25.77226,-80.19137,9,13,22,
Kennedy Space Centre,28.60824,-80.60416,9,13,22,
Orlando,
Tampa,
Saint Petersburg,
Jacksonville,
Savannah,
Augusta,
Charleston,
Charlotte,
Winston-Salem,
Greensboro,
Raleigh,
Virginia Beach,
Norfolk,
Newport News,
Yorktown,
Williamsburg,
Jamestown,37.20850,-76.77877,9,13,22,
Richmond,
Alexandria,
Arlington,
Washington DC,
Baltimore,
Dover,
Wilmington,
Philadelphia,
Scranton,
Newark,
Jersey City,
Brooklyn,40.69013,-73.98251,9,13,22,
Manhattan,40.71160,-74.01328,9,13,22,
New York,40.74828,-73.98569,9,13,23,
Yonkers,40.93215,-73.89798,9,13,23,
Bridgeport,
New Haven,
Hartford,
Springfield,
Worcester,
Providence,
Plymouth,
Boston,42.35873,-71.05747,9,13,23,
Cambridge,
Manchester,
Concord,
Portland,
Quebec,
Burlington,
Albany,
Montreal,
Ottawa,
Buffalo,
Toronto,
Hamilton,
London,
Erie,
Pittsburgh,
Cleveland,
Columbus,
Toledo,
Detroit,42.33156,-83.04659,9,13,23,You're not getting shit Detroit!
Lansing,
Grand Rapids,
Fort Wayne,
Cincinnati,
Lexington,
Atlanta,
Tallahassee,
Mobile,
Montgomery,
Birmingham,33.51231,-86.80717,9,13,24,Y'all go fuck yer sister or someat!
Huntsville,
Nashville,
Louisville,
Indianapolis,
Chicago,41.89880,-87.62302,9,13,24,
Milwaukee,
Madison,
Springfield,
St Louis,
Memphis,
Jackson,
Baton Rouge,
New Orleans,
Mérida,20.96710,-89.62373,9,13,24,
Belize City,17.49145,-88.18145,9,13,24,
Tegucigalpa,14.10577,-87.20464,9,13,24,
San Salvador,13.69860,-89.19102,9,13,24,
Galapagos,-0.37164,-91.54006,9,13,24,
Guatemala City,14.64185,-90.51323,9,13,24,
Shreveport,
Little Rock,
Kansas City,
Des Moines,
Cedar Rapids,
Saint Paul,
Minneapolis,
Winnepeg,
Fargo,
Sioux Falls,
Lincoln,
Omaha,
Lawrence,38.97126,-95.23591,9,13,24,
Topeka,
Wichita,
Tulsa,
Oklahoma City,
Plano,
Dallas,
Arlington,
Fort Worth,
Houston,
Austin,30.27459,-97.74038,9,13,24,
San Antonio,
Corpus Christi,
Boca Chica,
Laredo,
Monterrey,
Puebla,
Mexico City,
Toluca,
Querétaro,
León,
Easter Island,-27.14398,-109.33054,9,13,24,
Guadalajara,
Torreón,
Chihuahua,
Ciudad Juárez,
El Paso,
Albuquerque,
Colorado Springs,
Aurora,
Denver,
Billings,
Regina,50.44803,-104.61231,9,13,24,
Saskatoon,52.13066,-106.66028,9,13,24,
Yellowknife,62.45447,-114.37680,9,13,24,
Edmonton,53.54402,-113.48999,9,13,24,
Calgary,51.04115,-114.07022,9,13,24,
Spokane,47.65641,-117.41537,9,13,24,
Boise,43.61776,-116.19960,9,13,24,
Salt Lake City,40.75960,-111.88681,9,13,24,
Provo,40.23266,-111.65934,9,13,24,
Tucson,32.22290,-110.97382,9,13,24,
Mesa,33.41412,-111.83039,9,13,24,
Phoenix,33.44813,-112.09455,9,13,24,
Lake Havasu City,34.47162,-114.34755,9,13,24,
Las Vegas,36.11251,-115.17206,9,13,24,
Mexicali,32.64065,-115.47231,9,13,24,
Tijuana,32.52878,-117.03560,9,13,24,
San Diego,32.72622,-117.15436,9,13,24,
Riverside,33.97904,-117.37514,9,13,24,
Irvine,33.68618,-117.82643,9,13,24,
Santa Ana,33.74849,-117.87154,9,13,24,
Anaheim,33.81213,-117.91895,9,13,24,
Long Beach,33.75288,-118.18976,9,13,24,
Hawthorne,33.91991,-118.32684,9,13,24,
Los Angeles,34.10201,-118.34101,9,13,24,
Bakersfield,35.37679,-119.00908,9,13,24,
Fresno,36.73640,-119.78919,9,13,24,
San Jose,37.33771,-121.88597,9,13,24,
San Francisco,37.79512,-122.40273,9,13,25,
Oakland,37.80360,-122.27691,9,13,25,
Stockton,37.95779,-121.28775,9,13,25,
Sacramento,38.57658,-121.49326,9,13,25,
Reno,39.52821,-119.81372,9,13,25,
Portland,45.51620,-122.68359,9,13,25,
Seattle,47.62054,-122.34927,9,13,25,
Redmond,47.64240,-122.13693,9,13,25,
Vancouver,49.28733,-123.11706,9,13,25,
Juneau,58.30204,-134.41049,9,13,25,
Whitehorse,60.71336,-135.04824,9,13,25,
Fairbanks,64.85613,-147.81951,9,13,25,
Anchorage,61.21931,-149.90407,9,13,25,
Papeete,-17.54012,-149.56718,9,13,25,
Honolulu,21.30738,-157.85720,9,13,25,
Nome,64.49706,-165.40547,9,13,26,
The North Pole,80,-179.999,9,13,27,
