City,Latitude,Longitude,Day,Hour,Min,Message
The North Pole,80,179.999,9,13,05,
Anadyr,64.73877,177.51322,9,13,06,
Apia,-13.83040,-171.76850,9,13,06,
Nuku'alofa,-21.13593,-175.20400,9,13,06,
Suva,-18.14553,178.42437,9,13,06,
Majuro,7.06932,171.29218,9,13,06,
Honiara,-9.43533,159.96330,9,13,06,
Port Vila,-17.73416,168.32411,9,13,06,
Nouméa,-22.27126,166.43965,9,13,06,
Auckland,-36.84847,174.76217,9,13,06,
Wellington,-41.29046,174.78206,9,13,06,
Christchurch,-43.53312,172.63340,9,13,06,
Hobart,-42.88579,147.33026,9,13,06,
Melbourne,-37.82257,144.96893,9,13,06,
Canberra,-35.30727,149.12514,9,13,06,
Sydney,-33.85675,151.21530,9,13,06,
Newcastle,-32.92898,151.78036,9,13,06,
Gold Coast,-28.00608,153.42937,9,13,06,
Brisbane,-27.46901,153.02350,9,13,06,
Cairns,-16.92579,145.77108,9,13,06,
Port Moresby,-9.43692,147.21014,9,13,06,
Guam,13.47387,144.75164,9,13,06,
Hiroshima,34.39344,132.45275,9,13,06,
Kobe,34.68265,135.18670,9,13,06,
Sakai,34.57566,135.48841,9,13,06,
Osaka,34.68687,135.52596,9,13,06,
Kyoto,35.02521,135.76208,9,13,06,
Nagoya,35.18487,136.89962,9,13,06,
Yokohama,35.46594,139.62232,9,13,06,
Kawasaki,35.53146,139.69702,9,13,06,
Tokyo,35.71005,139.8107,9,13,07,
Saitama,35.85726,139.64871,9,13,07,
Sendai,38.25999,140.88205,9,13,07,
Petropavlovsk-Kamchatsky,53.06688,158.60719,9,13,07,
Sapporo,43.06110,141.35631,9,13,07,
Vladivostok,43.11125,131.88136,9,13,07,
Yakutsk,62.02715,129.73218,9,13,07,
Harbin,45.74703,126.62738,9,13,07,
Shenyang,41.80443,123.42784,9,13,07,
Pyongyang,39.03209,125.75286,9,13,07,
Seoul,37.51257,127.10253,9,13,07,
Busan,35.10111,129.03229,9,13,07,
Fukuoka,33.58486,130.38333,9,13,07,
Okinawa,26.21699,127.71936,9,13,07,
Adelaide,-34.92863,138.59983,9,13,07,
Alice Springs,-23.69483,133.88201,9,13,07,
Darwin,-12.46532,130.84498,9,13,07,
Manila,14.59436,120.97027,9,13,07,
Kaohsiung,22.63947,120.30261,9,13,07,
Taipei,25.03390,121.56450,9,13,07,
Xiamen,24.49029,118.10225,9,13,07,
Quanzhou,24.91395,118.57944,9,13,07,
Fuzhou,26.08517,119.29038,9,13,07,
Hangzhou,30.23879,120.13963,9,13,07,
Shanghai,31.23353,121.49945,9,13,07,
Suzhou,31.31135,120.62034,9,13,07,
Wuxi,31.54984,120.30038,9,13,07,
Nanjing,32.07192,118.78765,9,13,07,
Qingdao,36.06545,120.30654,9,13,07,
Tianjin,39.14154,117.17506,9,13,07,
Tiananmen Square,39.90454,116.39125,9,13,08,I am looking forward to seeing nothing happening!
Beijing,39.91645,116.39112,9,13,08,
Shijiazhuang,38.04072,114.51663,9,13,08,
Zhengzhou,34.76125,113.65788,9,13,08,
Luoyang,34.64198,112.44742,9,13,08,
Wuhan,30.53920,114.35076,9,13,08,
Dongguan,23.00960,113.74075,9,13,08,
Guangzhou,23.10648,113.31846,9,13,08,
Foshan,23.01093,113.12076,9,13,08,
Shenzhen,22.53302,114.04982,9,13,08,
Hong Kong,22.28529,114.15930,9,13,08,
Macau,22.18985,113.54404,9,13,08,
Surabaya,-7.248334,112.73117,9,13,08,
Perth,-31.95115,115.85987,9,13,08,
Christmas Island,-10.42819,105.66402,9,13,08,
Jakarta,-6.17541,106.82711,9,13,08,
Singapore,1.28396,103.85924,9,13,08,
Kuala Lumpur,3.15806,101.71171,9,13,08,
Ho Chi Minh City,10.75325,106.66118,9,13,08,
Phnom Penh,11.56239,104.93183,9,13,08,
Hanoi,21.03429,105.84011,9,13,08,
Chongqing,29.56209,106.54453,9,13,08,
Xi'an,34.38407,109.27248,9,13,08,
Ulaanbaatar,47.91872,106.91164,9,13,08,
Irkutsk,52.29357,104.28612,9,13,08,
Chengdu,30.65736,104.05985,9,13,08,
Kunming,25.05335,102.69750,9,13,08,
Bangkok,13.74656,100.49309,9,13,08,
Rangoon,16.79837,96.14955,9,13,08,
Chittagong,22.33381,91.83010,9,13,08,
Dhaka,23.73508,90.42591,9,13,08,
Calcutta,22.54482,88.34237,9,13,08,
Lhasa,29.65552,91.11259,9,13,08,
Krasnoyarsk,56.00874,92.87029,9,13,08,
Norilsk,69.35473,88.19059,9,13,08,
Novosibirsk,54.98304,82.89590,9,13,08,
Ürümqi,43.79683,87.59908,9,13,08,
Kathmandu,27.70063,85.31183,9,13,08,
Lucknow,26.85883,80.91786,9,13,08,
Chennai,13.07970,80.28619,9,13,08,
Colombo,6.93637,79.84083,9,13,08,
Malé,4.17742,73.51237,9,13,08,
Bangalore,12.96274,77.57598,9,13,08,
Hyderabad,17.36160,78.47464,9,13,08,
Pune,18.51944,73.85532,9,13,08,
Mumbai,18.96958,72.81926,9,13,08,
Surat,21.20490,72.84105,9,13,08,
Ahmedabad,23.02643,72.60102,9,13,08,
Jaipur,26.92575,75.82361,9,13,08,
Agra,27.17501,78.04213,9,13,08,
New Delhi,28.61285,77.23110,9,13,08,
Delhi,28.65586,77.24093,9,13,08,
Lahore,31.57727,74.33630,9,13,08,
Islamabad,33.73165,73.09718,9,13,08,
Bishkek,42.87848,74.60387,9,13,08,
Almaty,43.23993,76.92726,9,13,08,
Astana,51.12580,71.44641,9,13,08,
Omsk,54.99017,73.36696,9,13,08,
Yekaterinburg,56.83920,60.61658,9,13,08,
Chelyabinsk,55.15860,61.40264,9,13,08,
Baikonur,45.92034,63.34287,9,13,08,
Tashkent,41.31123,69.27972,9,13,08,
Dushanbe,38.57626,68.78362,9,13,08,
Kabul,34.53567,69.19055,9,13,08,
Karachi,24.84335,67.05415,9,13,08,
Port Louis,-20.16922,57.51014,9,13,08,
Victoria,-4.62309,55.45511,9,13,08,
Muscat,23.59885,58.42243,9,13,08,
Dubai,25.19711,55.27436,9,13,08,
Abu Dhabi,24.48350,54.60692,9,13,08,
Doha,25.29143,51.53361,9,13,08,
Manama,26.22201,50.58738,9,13,08,
Shiraz,29.60960,52.54335,9,13,08,
Isfahan,32.65728,51.67753,9,13,08,
Tehran,35.69980,51.33797,9,13,08,
Baku,40.35985,49.83556,9,13,08,
Samara,53.18554,50.08757,9,13,08,
Ufa,54.73965,55.95076,9,13,08,
Perm,58.00847,56.21807,9,13,08,
Kazan,55.79942,49.10623,9,13,08,
Nizhny Novgorod,56.33052,44.00940,9,13,08,
Volgograd,48.70939,44.51361,9,13,08,
Tbilisi,41.69342,44.80143,9,13,08,
Yerevan,40.18564,44.51504,9,13,08,
Stepanakert,39.81767,46.75294,9,13,08,
Tabriz,38.07344,46.30099,9,13,08,
Mosul,36.35765,43.14172,9,13,08,
Baghdad,33.30850,44.38905,9,13,08,
Babylon,32.54223,44.42087,9,13,08,
Uruk,31.32532,45.63944,9,13,08,
Ur,30.96273,46.10317,9,13,08,
Kuwait,29.37941,47.97502,9,13,08,
Riyadh,24.71134,46.67435,9,13,08,
Mogadishu,2.04106,45.33678,9,13,08,
Djibouti,11.59957,43.14708,9,13,08,
Aden,12.77918,45.04942,9,13,08,
Sana'a,15.35127,44.21594,9,13,08,
Mecca,21.42250,39.82617,9,13,08,
Medina,24.46893,39.61096,9,13,08,
Jeddah,21.73397,39.08286,9,13,08,
Asmara,15.32839,38.92593,9,13,08,
Addis Ababa,9.01044,38.76148,9,13,08,
Nairobi,-1.28339,36.82072,9,13,08,
Mombasa,-4.05731,39.66049,9,13,08,
Zanzibar,-6.16117,39.18897,9,13,08,
Dar es Salaam,-6.822914,39.28406,9,13,08,
Antananarivo,-18.90318,47.52125,9,13,08,
Maputo,-25.96929,32.57313,9,13,08,
Durban,-29.85862,31.02637,9,13,08,
Port Elizabeth,-33.96187,25.62029,9,13,08,
Bloemfontein,-29.11518,26.21904,9,13,08,
Johannesburg,-26.20550,28.04687,9,13,08,
Pretoria,-25.74638,28.18805,9,13,08,
Gaborone,-24.64502,25.90735,9,13,08,
Harare,-17.82828,31.05342,9,13,08,
Lusaka,-15.36951,28.27265,9,13,08,
Bujumbura,-3.38332,29.37375,9,13,08,
Kigali,-1.95518,30.08598,9,13,08,
Kampala,0.31561,32.56860,9,13,08,
Juba,4.84654,31.58457,9,13,08,
Khartoum,15.56320,32.55484,9,13,08,
Luxor,25.71915,32.65668,9,13,08,
Suez,29.93361,32.56211,9,13,08,
Cairo,30.04773,31.23366,9,13,08,
Giza,29.97923,31.13418,9,13,08,
Alexandria,31.21422,29.89131,9,13,08,
Port Said,31.26773,32.30404,9,13,08,
Gaza,31.51524,34.45578,9,13,08,
Tel Aviv,32.05885,34.76201,9,13,08,
Bethlehem,31.70436,35.20727,9,13,08,Merry Christmas Jesus!
Jerusalem,31.77671,35.23449,9,13,08,
Jericho,31.87085,35.43942,9,13,08,
Amman,31.95427,35.93537,9,13,08,
Haifa,32.81755,34.99968,9,13,08,
Tyre,33.27003,35.19680,9,13,08,
Sidon,33.56715,35.37092,9,13,08,
Beirut,33.89665,35.50455,9,13,08,
Byblos,34.12004,35.64644,9,13,08,
Damascus,33.51379,36.27650,9,13,08,
Homs,34.72361,36.71447,9,13,08,
Aleppo,36.19942,37.16294,9,13,08,
Antioch,36.20260,36.16036,9,13,08,
Nicosia,35.17432,33.37098,9,13,08,
Ankara,39.92513,32.83697,9,13,08,
Sebastopol,44.61589,33.52411,9,13,08,
Sochi,43.40200,39.95591,9,13,08,
Krasnodar,45.02440,38.97139,9,13,08,
Rostov-on-Don,47.23794,39.69956,9,13,08,
Kharkiv,49.99001,36.22714,9,13,08,
Voronezh,51.65743,39.21622,9,13,08,
The Kremlin,55.74987,37.61571,9,13,09,
Moscow,55.75252,37.62310,9,13,09,
Murmansk,68.97470,33.06082,9,13,09,
Saint Petersburg,59.94041,30.31381,9,13,09,
Helsinki,60.17172,24.94139,9,13,09,
Tallinn,
Riga,
Vilnius,
Minsk,
Kiev,
Odessa,
Bucharest,
Istanbul,41.00849,28.98011,9,13,09,
Troy,39.95743,26.23889,9,13,09,
Izmir,38.42841,27.14535,9,13,09,
Ephesus,37.94109,27.34245,9,13,09,
Halicarnassus,37.03789,27.42411,9,13,09,
Rhodes,36.45102,28.22578,9,13,09,
Knossos,35.29788,25.16312,9,13,09,
Athens,37.97149,23.72662,9,13,09,
Thebes,38.32070,23.31764,9,13,09,
Corinth,37.90602,22.87921,9,13,09,
Argos,37.63060,22.72147,9,13,09,
Sparta,37.08225,22.42357,9,13,09,
Olympia,37.63790,21.63021,9,13,09,
Ithica,38.46067,20.63788,9,13,09,
Thessaloniki,40.63235,22.94086,9,13,09,
Sofia,
Pristina,
Skopje,
Tirana,
Podgorica,
Dubrovnik,
Sarajevo,
Belgrade,
Budapest,
Krakow,
Warsaw,
Kaliningrad,54.70637,20.51194,9,13,09,
Stockholm,
Gothenburg,
Malmö,
Copenhagen,
Berlin,
Leipzig,
Dresden,
Prague,
Wroclaw,
Bratislava,
Vienna,
Zagreb,
Split,
Ljubliana,
Trieste,
Salzburg,
Venice,
Padua,
San Marino,
Bologna,
Verona,
Munich,
Nuremburg,
Hanover,
Hamburg,
Lübeck,
Billund,
Oslo,
Bergen,
Stavenger,
Bremen,
Dortmund,
Essen,
Düsseldorf,
Cologne,
Bonn,
Frankfurt,
Strasbourg,
Stuttgart,
Konstanz,
Liechtenstein,
Zurich,
Basel,
Bern,
Interlaken,
Lauterbrunnen,
Milan,
Genoa,
Pisa,
Florence,
Vatican City,41.90225,12.45726,9,13,09,
Rome,41.89140,12.48658,9,13,10,
Ostia,41.75428,12.28816,9,13,10,
Laurentum,41.71106,12.34691,9,13,10,
Naples,40.85040,14.25761,9,13,10,
Pompeii,40.75195,14.48600,9,13,10,
Bari,
Gallipoli,
Croton,
Syracuse,
Valletta,
Palermo,
Ajaccio,
Cagliari,
Carthage,36.85774,10.32939,9,13,10,
Tunis,36.80639,10.18078,9,13,10,
Tripoli,32.89991,13.17573,9,13,10,
N'Djamena,
Bangui,
Windhoek,
Cape Town,
Luanda,
Kinshasa,
Yaounde,
Abuja,
Lagos,
Porto-Novo,
Lomé,
Accra,
Niamey,
Algiers,
Ibiza,38.90607,1.43640,9,13,10,
Palma,39.56746,2.64824,9,13,10,
Ciutadella,40.00168,3.83741,9,13,10,
Marseille,
Nice,
Monaco,
Turin,
Lausanne,
Geneva,
Grenoble,
Lyon,
Dijon,
Reims,
Luxembourg,
Liege,
Maastricht,
Eindhoven,
Utrecht,
Amsterdam,
The Hague,
Rotterdam,
Antwerp,
Brussels,
Waterloo,
Charleroi,
Ghent,
Bruges,
Roubaix,50.69073,3.17408,9,13,10,
Lille,50.63655,3.06993,9,13,10,
Dunkirk,51.03776,2.37638,9,13,10,
Paris,48.85301,2.34988,9,13,10,
Eiffel Tower,48.85826,2.29450,9,13,10,
Orleans,47.90184,1.91030,9,13,10,
Montpellier,43.61080,3.87664,9,13,10,
Perpignan,42.69844,2.89535,9,13,10,
Carcassonne,43.21804,2.35183,9,13,10,
Toulouse,43.60436,1.44336,9,13,10,
Andorra la Vella,42.50874,1.52942,9,13,10,
Barcelona,41.40359,2.17436,9,13,10,
Valencia,39.46979,-0.37722,9,13,10,
Cartagena,37.59937,-0.98408,9,13,10,
Murcia,37.98402,-1.12861,9,13,10,
Zaragoza,41.65466,-0.88196,9,13,10,
Pau,43.30425,-0.37483,9,13,10,
San Sebastian,43.32388,-1.97450,9,13,10,
Moliets Plage,43.85244,-1.39186,9,13,10,
Bordeaux,44.83763,-0.57777,9,13,10,
Poitiers,46.58323,0.34390,9,13,10,
Caen,49.18180,-0.37300,9,13,10,
Le Havre,49.49410,0.10784,9,13,10,
Rouen,49.44021,1.09493,9,13,10,
Boulogne-sur-mer,50.72596,1.61500,9,13,10,
Calais,50.95269,1.85455,9,13,10,
Dover,51.12513,1.31343,9,13,10,
Norwich,52.62699,1.30651,9,13,10,
Cambridge,52.20371,0.12403,9,13,10,
Epping,51.69371,0.11385,9,13,10,
Beckton,51.51430,0.06082,9,13,10,
Woolwich,51.49147,0.06667,9,13,10,
Dangleway,51.49978,0.00833,9,13,10,
Layton,51.55682,-0.00514,9,13,10,
Meridian Water,51.60809,-0.04685,9,13,10,
Enfield Lock,51.67029,-0.02870,9,13,10,
Cockfosters,51.65136,-0.14854,9,13,10,
City of London,51.50867,-0.08564,9,13,11,
Croydon,51.37976,-0.12379,9,13,11,
Bowis' Christmas Party,51.50329,-0.12764,9,13,12,Save some wine and cheese for me Bowis!
Chinatown,51.51178,-0.13115,9,13,12,
CLASSIFIED,51.52145,-0.13881,9,13,12,
Camden,51.53942,-0.14271,9,13,12,
Battersea Power Station Station,51.47962,-0.14300,9,13,12,
Huxley,51.4989,-0.17932,9,13,13,
Queensway,51.51048,-0.18725,9,13,13,
Paddington,51.51647,-0.17679,9,13,13,
Kensal Green,51.52913,-0.21755,9,13,14,
Acton,51.52341,-0.25975,9,13,15,
North Ealing,51.51753,-0.28885,9,13,15,
Ealing,51.51490,-0.30105,9,13,15,
Harrow-on-the-Hill,51.57939,-0.33698,9,13,15,
Watford,51.65848,-0.41428,9,13,15,
West Ruislip,51.56972,-0.43772,9,13,15,
A30,51.47550,-0.39577,9,13,15,
Wraysbury,51.45748,-0.55373,9,13,15,
Chesham,51.70520,-0.61109,9,13,15,
Northampton,52.23706,-0.90633,9,13,15,
Leicester,52.63123,-1.12518,9,13,15,
Nottingham,52.94706,-1.147003,9,13,15,
Sheffield,53.37837,-1.46216,9,13,15,
Leeds,53.79507,-1.54768,9,13,15,
York,53.96229,-1.08210,9,13,15,
Newcastle,54.98959,-1.53276,9,13,15,
Berwick-upon-Tweed,55.77401,-2.01080,9,13,15,
Aberdeen,57.14378,-2.09925,9,13,15,
Lerwick,60.15313,-1.14272,9,13,15,
Kirkwall,58.98162,-2.96078,9,13,15,
Edinburgh,55.94866,-3.20042,9,13,15,
Glasgow,55.86002,-4.25789,9,13,15,
Carlisle,54.89094,-2.93327,9,13,15,
Manchester,53.47746,-2.23120,9,13,15,
Liverpool,53.40794,-2.97848,9,13,15,
Stoke,53.00800,-2.18106,9,13,15,
Ironbridge,52.62732,-2.48544,9,13,15,
Stourbridge Junction,52.44756,-2.13395,9,13,15,
Birmingham,52.47782,-1.89894,9,13,15,
Dorridge,52.37406,-1.75207,9,13,15,
Bicester,51.89262,-1.14920,9,13,15,
Oxford,51.75306,-1.25002,9,13,15,
Chocky City,51.06494,-1.79729,9,13,15,
Southampton,50.90770,-1.41364,9,13,15,
Portsmouth,50.79555,-1.10851,9,13,15,
Nantes,47.21618,-1.54939,9,13,15,
Rennes,48.11273,-1.67785,9,13,15,
St Helier,49.18387,-2.10565,9,13,15,
St Peter Port,49.45468,-2.53628,9,13,15,
Bath,51.38096,-2.35948,9,13,15,
REDACTED,51.89956,-2.12436,9,13,15,
Glozza,51.86734,-2.24674,9,13,15,
Wozza,52.19472,-2.20945,9,13,15,
Hereford,52.06124,-2.70851,9,13,15,
Lydney,51.71585,-2.53146,9,13,15,
Pilning,51.55655,-2.62712,9,13,15,
Brizzle,51.44983,-2.58087,9,13,15,
Taunton,51.02201,-3.10336,9,13,15,
Exeter,50.73741,-3.53254,9,13,15,
Brest,48.39147,-4.48481,9,13,15,
Okehampton,50.73246,-3.99633,9,13,15,
Barry Island,51.39230,-3.27374,9,13,15,
IKEA,51.46281,-3.18827,9,13,15,
Cardiff,51.47599,-3.17907,9,13,15,
Nantgarw,51.56343,-3.27503,9,13,15,
Pontypridd,51.60421,-3.33945,9,13,15,
Newport,51.58874,-3.00599,9,13,15,
Gilfach Fargoed,51.68416,-3.22733,9,13,15,
Ebbw Vale,51.77661,-3.20247,9,13,15,
Rhymney,51.75884,-3.28958,9,13,15,
Merthyr Tydfil,51.74566,-3.37683,9,13,15,
Aberdare,51.71451,-3.44185,9,13,15,
Treherbert,51.67202,-3.53599,9,13,15,
Bridgend,51.49563,-3.52445,9,13,15,
Port Talbot,51.60558,-3.81713,9,13,15,
Baglan,51.62299,-3.81336,9,13,16,
Neath,51.65891,-3.7986,9,13,17,
Neath College,51.66691,-3.81364,9,13,17,
Bryncoch,51.66836,-3.81675,9,13,17,
Swansea,51.62520,-3.94104,9,13,17,
Ffynone,51.61996,-3.96005,9,13,18,
Cockett,51.63618,-3.98187,9,13,19,
Sugar Loaf,52.08208,-3.68586,9,13,19,
Cynghordy,52.06145,-3.73936,9,13,19,
Llandeilo,51.87999,-4.01184,9,13,19,
Ffairfach,51.87275,-3.99298,9,13,19,
Carmarthen,51.85338,-4.30594,9,13,19,
Tenby,51.67179,-4.69475,9,13,19,
Fishguard,52.01075,-4.98601,9,13,19,
Milford Haven,51.71500,-5.03813,9,13,19,
Pembroke Dock,51.69393,-4.93798,9,13,19,
Pembroke,51.67661,-4.91998,9,13,19,
DELETED,50.41176,-5.06301,9,13,19,
Newquay,50.41153,-5.06313,9,13,20,
Penryn,50.17106,-5.12799,9,13,21,
Camborne,50.20885,-5.30623,9,13,22,
Penzance,50.12181,-5.53276,9,13,22,
Dublin,53.34978,-6.26028,9,13,22,
Belfast,54.59636,-5.93003,9,13,22,
Cork,51.90028,-8.47300,9,13,22,
Madrid,40.41541,-3.70738,9,13,22,
Granada,37.17677,-3.58990,9,13,22,
Cordoba,37.88475,-4.77640,9,13,22,
Fez,34.04727,-5.00538,9,13,22,
Gilbraltar,36.14390,-5.34953,9,13,22,
Tangier,35.78740,-5.81370,9,13,22,
Seville,37.37707,-5.98709,9,13,22,
Porto,41.14566,-8.61460,9,13,22,
Lisbon,38.70987,-9.13257,9,13,22,
Rabat,34.01769,-6.83690,9,13,22,
Casablanca,33.58032,-7.60547,9,13,22,
Marrakesh,31.62176,-7.98152,9,13,22,
Timbuktu,16.77234,-3.00721,9,13,22,
Bamako,
Abidjan,
Monrovia,
Freetown,
Conakry,
Bissau,
Banjul,
Dakar,
Nouakchott,
Gran Canaria,
Tenerife,
Funchal,
Reykjavik,64.14188,-21.92694,9,13,22,
Ponta Delgada,
Praia,
Recife,
Fortaleza,
Salvador,
Rio de Janeiro,-22.95191,-43.21046,9,13,22,
Belo Horizonte,
Brasilia,
Sao Paulo,
Porto Alegre,
Montevideo,
Halley VI,-75.56742,-25.51655,9,13,22,
Stanley,
Buenos Aires,
Asuncion,
Manaus,
Belem,
Kourou,5.24027,-52.76843,9,13,22,Good Luck Webb!
Paramaribo,
Georgetown,
Bridgetown,
Port of Spain,
St George's,
Kingstown,
Castries,
Fort-de-France,
Pointe-à-Pitre,
St. John's,17.12261,-61.84190,9,13,22,
St. John's,47.57102,-52.70696,9,13,22,
Nuuk,
Iquluit,
Charlottetown,
Halifax,
Saint John,
Hamilton,
Charlotte Amalie,
San Juan,
Santo Domingo,
Port-au-Prince,
Oranjestad,
Willemstad,
Caracas,
La Paz,
Sucre,
Cordoba,
Ushuaia,
Punta Arenas,
Santiago,
Cusco,
Lima,
Quito,
Bogota,
Medellin,
Cartagena,
Santiago de Cuba,
Nassau,
Kingston,
Panama City,
San José,
Managua,
Havana,
Key West,
Miami,
Kennedy Space Centre,28.60824,-80.60416,9,13,22,
Orlando,
Tampa,
Saint Petersburg,
Jacksonville,
Savannah,
Augusta,
Charleston,
Charlotte,
Winston-Salem,
Greensboro,
Raleigh,
Virginia Beach,
Norfolk,
Newport News,
Yorktown,
Williamsburg,
Jamestown,
Richmond,
Alexandria,
Arlington,
Washington DC,
Baltimore,
Dover,
Wilmington,
Philadelphia,
Scranton,
Newark,
Jersey City,
Brooklyn,40.69013,-73.98251,9,13,22,
Manhattan,40.71160,-74.01328,9,13,22,
New York,40.74828,-73.98569,9,13,23,
Yonkers,
Bridgeport,
New Haven,
Hartford,
Springfield,
Worcester,
Providence,
Plymouth,
Boston,42.35873,-71.05747,9,13,23,
Cambridge,
Manchester,
Concord,
Portland,
Quebec,
Burlington,
Albany,
Montreal,
Ottawa,
Buffalo,
Toronto,
Hamilton,
London,
Erie,
Pittsburgh,
Cleveland,
Columbus,
Toledo,
Detroit,
Lansing,
Grand Rapids,
Fort Wayne,
Cincinnati,
Lexington,
Atlanta,
Tallahassee,
Mobile,
Montgomery,
Birmingham,33.51231,-86.80717,9,13,24,Y'all go fuck yer sister or someat!
Huntsville,
Nashville,
Louisville,
Indianapolis,
Chicago,
Milwaukee,
Madison,
Springfield,
St Louis,
Memphis,
Jackson,
Baton Rouge,
New Orleans,
Mérida,
Belize City,
Tegucigalpa,
San Salvador,
Galapagos,-0.37164,-91.54006,9,13,24,
Guatemala City,
Shreveport,
Little Rock,
Kansas City,
Des Moines,
Cedar Rapids,
Saint Paul,
Minneapolis,
Winnepeg,
Fargo,
Sioux Falls,
Lincoln,
Omaha,
Lawrence,
Topeka,
Wichita,
Tulsa,
Oklahoma City,
Plano,
Dallas,
Arlington,
Fort Worth,
Houston,
Austin,30.27459,-97.74038,9,13,24,
San Antonio,
Corpus Christi,
Boca Chica,
Laredo,
Monterrey,
Puebla,
Mexico City,
Toluca,
Querétaro,
León,
Easter Island,-27.14398,-109.33054,9,13,24,
Guadalajara,
Torreón,
Chihuahua,
Ciudad Juárez,
El Paso,
Albuquerque,
Colorado Springs,
Aurora,
Denver,
Billings,
Regina,
Saskatoon,
Yellowknife,
Edmonton,
Calgary,
Spokane,
Boise,
Salt Lake City,
Provo,
Tucson,
Mesa,
Phoenix,
Lake Havasu City,
Las Vegas,
Mexicali,
Tijuana,
San Diego,
Riverside,
Irvine,
Santa Ana,
Anaheim,
Long Beach,
Hawthorne,
Los Angeles,
Bakersfield,
Fresno,
San Jose,
San Francisco,37.79512,-122.40273,9,13,25,
Oakland,
Stockton,
Sacramento,
Reno,
Portland,45.51620,-122.68359,9,13,25,
Seattle,47.62054,-122.34927,9,13,25,
Redmond,47.64240,-122.13693,9,13,25,
Vancouver,49.28733,-123.11706,9,13,25,
Juneau,58.30204,-134.41049,9,13,25,
Whitehorse,60.71336,-135.04824,9,13,25,
Fairbanks,64.85613,-147.81951,9,13,25,
Anchorage,61.21931,-149.90407,9,13,25,
Papeete,-17.54012,-149.56718,9,13,25,
Honolulu,21.30738,-157.85720,9,13,25,
Nome,64.49706,-165.40547,9,13,26,
The North Pole,80,-179.999,9,13,27,
