City,Latitude,Longitude,Day,Hour,Min,Message
The North Pole,80,179.999,21,10,00,
Anadyr,64.73877,177.51322,21,10,30,
Apia,-13.8304,-171.7685,21,11,00,
Nuku'alofa,-21.13593,-175.204,21,11,05,
Suva,-18.14553,178.42437,21,11,10,
Auckland,-36.84847,174.76217,21,11,20,
Wellington,-41.29046,174.78206,21,11,25,
Christchurch,-43.53312,172.6334,21,11,30,
Nouméa,-22.27126,166.43965,21,11,45,
Port Vila,-17.73416,168.32411,21,11,50,
Majuro,7.06932,171.29218,21,12,00,
Petropavlovsk-Kamchatsky,53.06688,158.60719,21,12,20,
Honiara,-9.43533,159.9633,21,12,40,
Brisbane,-27.46901,153.0235,21,12,50,
Gold Coast,-28.00608,153.42937,21,12,51,
Newcastle,-32.92898,151.78036,21,12,55,
Sydney,-33.85675,151.2153,21,12,56,
Canberra,-35.30727,149.12514,21,13,00,
Hobart,-42.88579,147.33026,21,13,05,
Melbourne,-37.82257,144.96893,21,13,10,
Adelaide,-34.92863,138.59983,21,13,13,
Cairns,-16.92579,145.77108,21,13,20,
Port Moresby,-9.43692,147.21014,21,13,25,
Guam,13.47387,144.75164,21,13,35,
Sapporo,43.0611,141.35631,21,13,50,
Sendai,38.25999,140.88205,21,13,55,
Saitama,35.85726,139.64871,21,13,59,
Tokyo,35.71005,139.8107,21,14,00,
Kawasaki,35.53146,139.69702,21,14,01,
Yokohama,35.46594,139.62232,21,14,02,
Nagoya,35.18487,136.89962,21,14,06,
Kyoto,35.02521,135.76208,21,14,08,
Osaka,34.68687,135.52596,21,14,09,
Sakai,34.57566,135.48841,21,14,10,
Kobe,34.68265,135.1867,21,14,11,
Hiroshima,34.39344,132.45275,21,14,14,
Vladivostok,43.11125,131.88136,21,14,19,
Yakutsk,62.02715,129.73218,21,14,24,
Harbin,45.74703,126.62738,21,14,30,
Shenyang,41.80443,123.42784,21,14,32,
Pyongyang,39.03209,125.75286,21,14,34,
Seoul,37.51257,127.10253,21,14,36,
Busan,35.10111,129.03229,21,14,38,
Fukuoka,33.58486,130.38333,21,14,39,
Okinawa,26.21699,127.71936,21,14,43,
Alice Springs,-23.69483,133.88201,21,15,00,
Darwin,-12.46532,130.84498,21,15,03,
Manila,14.59436,120.97027,21,15,15,
Kaohsiung,22.63947,120.30261,21,15,20,
Taipei,25.0339,121.5645,21,15,22,
Xiamen,24.49029,118.10225,21,15,24,
Quanzhou,24.91395,118.57944,21,15,26,
Fuzhou,26.08517,119.29038,21,15,28,
Hangzhou,30.23879,120.13963,21,15,32,
Shanghai,31.23353,121.49945,21,15,34,
Suzhou,31.31135,120.62034,21,15,36,
Wuxi,31.54984,120.30038,21,15,37,
Nanjing,32.07192,118.78765,21,15,39,
Qingdao,36.06545,120.30654,21,15,42,
Tianjin,39.14154,117.17506,21,15,45,
Tiananmen Square,39.90454,116.39125,21,15,48,I am looking forward to seeing nothing happening!
Beijing,39.91645,116.39112,21,15,49,
Shijiazhuang,38.04072,114.51663,21,15,51,
Zhengzhou,34.76125,113.65788,21,15,53,
Luoyang,34.64198,112.44742,21,15,54,
Wuhan,30.5392,114.35076,21,15,57,
Hong Kong,22.28529,114.1593,21,16,00,
Shenzhen,22.53302,114.04982,21,16,01,
Dongguan,23.0096,113.74075,21,16,02,
Guangzhou,23.10648,113.31846,21,16,03,
Foshan,23.01093,113.12076,21,16,04,
Macau,22.18985,113.54404,21,16,05,
Surabaya,-7.248334,112.73117,21,16,10,
Perth,-31.95115,115.85987,21,16,15,
Christmas Island,-10.42819,105.66402,21,16,20,
Jakarta,-6.17541,106.82711,21,16,22,
Singapore,1.28396,103.85924,21,16,25,
Kuala Lumpur,3.15806,101.71171,21,16,27,
Ho Chi Minh City,10.75325,106.66118,21,16,30,
Phnom Penh,11.56239,104.93183,21,16,32,
Hanoi,21.03429,105.84011,21,16,35,
Chongqing,29.56209,106.54453,21,16,38,
Xi'an,34.38407,109.27248,21,16,40,
Ulaanbaatar,47.91872,106.91164,21,16,45,
Irkutsk,52.29357,104.28612,21,16,47,
Chengdu,30.65736,104.05985,21,16,53,
Kunming,25.05335,102.6975,21,16,55,
Bangkok,13.74656,100.49309,21,16,58,
Rangoon,16.79837,96.14955,21,17,00,
Chittagong,22.33381,91.8301,21,17,02,
Dhaka,23.73508,90.42591,21,17,04,
Calcutta,22.54482,88.34237,21,17,06,
Lhasa,29.65552,91.11259,21,17,08,
Krasnoyarsk,56.00874,92.87029,21,17,14,
Norilsk,69.35473,88.19059,21,17,18,
Novosibirsk,54.98304,82.8959,21,17,22,
Ürümqi,43.79683,87.59908,21,17,25,
Kathmandu,27.70063,85.31183,21,17,30,
Lucknow,26.85883,80.91786,21,17,32,
Chennai,13.0797,80.28619,21,17,36,
Colombo,6.93637,79.84083,21,17,38,
Malé,4.17742,73.51237,21,17,40,
Bangalore,12.96274,77.57598,21,17,42,
Hyderabad,17.3616,78.47464,21,17,44,
Agra,27.17501,78.04213,21,17,47,
New Delhi,28.61285,77.2311,21,17,49,
Delhi,28.65586,77.24093,21,17,50,
Jaipur,26.92575,75.82361,21,17,52,
Pune,18.51944,73.85532,21,17,55,
Mumbai,18.96958,72.81926,21,17,57,
Surat,21.2049,72.84105,21,17,59,
Ahmedabad,23.02643,72.60102,21,18,01,
Lahore,31.57727,74.3363,21,18,04,
Islamabad,33.73165,73.09718,21,18,06,
Bishkek,42.87848,74.60387,21,18,09,
Almaty,43.23993,76.92726,21,18,11,Great Success!
Astana,51.1258,71.44641,21,18,14,Great Success!
Omsk,54.99017,73.36696,21,18,16,
Yekaterinburg,56.8392,60.61658,21,18,19,
Chelyabinsk,55.1586,61.40264,21,18,21,
Baikonur,45.92034,63.34287,21,18,24,
Tashkent,41.31123,69.27972,21,18,27,
Dushanbe,38.57626,68.78362,21,18,29,
Kabul,34.53567,69.19055,21,18,31,
Karachi,24.84335,67.05415,21,18,34,
Mashhad,36.28795,59.61565,21,18,36,
Ashgabat,37.88114,58.38236,21,18,38,
Muscat,23.59885,58.42243,21,18,40,
Port Louis,-20.16922,57.51014,21,18,45,
Victoria,-4.62309,55.45511,21,18,47,
Dubai,25.19711,55.27436,21,18,50,
Abu Dhabi,24.4835,54.60692,21,18,51,
Doha,25.29143,51.53361,21,18,53,
Manama,26.22201,50.58738,21,18,54,
Shiraz,29.6096,52.54335,21,18,56,
Isfahan,32.65728,51.67753,21,18,58,
Tehran,35.6998,51.33797,21,19,00,
Baku,40.35985,49.83556,21,19,02,
Ufa,54.73965,55.95076,21,19,05,
Perm,58.00847,56.21807,21,19,07,
Samara,53.18554,50.08757,21,19,09,
Kazan,55.79942,49.10623,21,19,11,
Nizhny Novgorod,56.33052,44.0094,21,19,13,
Volgograd,48.70939,44.51361,21,19,15,
Tbilisi,41.69342,44.80143,21,19,17,
Yerevan,40.18564,44.51504,21,19,19,
Stepanakert,39.81767,46.75294,21,19,21,
Tabriz,38.07344,46.30099,21,19,23,
Mosul,36.35765,43.14172,21,19,24,
Baghdad,33.3085,44.38905,21,19,26,
Babylon,32.54223,44.42087,21,19,27,
Uruk,31.32532,45.63944,21,19,29,
Ur,30.96273,46.10317,21,19,30,
Kuwait,29.37941,47.97502,21,19,32,
Riyadh,24.71134,46.67435,21,19,34,
Mogadishu,2.04106,45.33678,21,19,37,
Djibouti,11.59957,43.14708,21,19,39,
Aden,12.77918,45.04942,21,19,41,
Sana'a,15.35127,44.21594,21,19,43,
Mecca,21.4225,39.82617,21,19,45,
Medina,24.46893,39.61096,21,19,47,
Jeddah,21.73397,39.08286,21,19,49,
Asmara,15.32839,38.92593,21,19,51,
Addis Ababa,9.01044,38.76148,21,19,53,
Nairobi,-1.28339,36.82072,21,19,55,
Mombasa,-4.05731,39.66049,21,19,57,
Zanzibar,-6.16117,39.18897,21,19,59,
Dar es Salaam,-6.822914,39.28406,21,20,00,
Antananarivo,-18.90318,47.52125,21,20,02,
Maputo,-25.96929,32.57313,21,20,04,
Durban,-29.85862,31.02637,21,20,06,
Port Elizabeth,-33.96187,25.62029,21,20,08,
Bloemfontein,-29.11518,26.21904,21,20,10,
Johannesburg,-26.2055,28.04687,21,20,12,
Pretoria,-25.74638,28.18805,21,20,13,
Gaborone,-24.64502,25.90735,21,20,14,
Harare,-17.82828,31.05342,21,20,16,
Lusaka,-15.36951,28.27265,21,20,18,
Bujumbura,-3.38332,29.37375,21,20,20,
Kigali,-1.95518,30.08598,21,20,21,
Kampala,0.31561,32.5686,21,20,23,
Juba,4.84654,31.58457,21,20,25,
Khartoum,15.5632,32.55484,21,20,27,
Luxor,25.71915,32.65668,21,20,29,
Suez,29.93361,32.56211,21,20,31,
Cairo,30.04773,31.23366,21,20,32,
Giza,29.97923,31.13418,21,20,33,
Alexandria,31.21422,29.89131,21,20,34,
Port Said,31.26773,32.30404,21,20,35,
Gaza,31.51524,34.45578,21,20,36,
Tel Aviv,32.05885,34.76201,21,20,37,
Bethlehem,31.70436,35.20727,21,20,38,Merry Christmas Jesus!
Jerusalem,31.77671,35.23449,21,20,39,
Jericho,31.87085,35.43942,21,20,40,
Amman,31.95427,35.93537,21,20,41,
Haifa,32.81755,34.99968,21,20,43,
Tyre,33.27003,35.1968,21,20,44,
Sidon,33.56715,35.37092,21,20,45,
Beirut,33.89665,35.50455,21,20,46,
Byblos,34.12004,35.64644,21,20,47,
Damascus,33.51379,36.2765,21,20,48,
Homs,34.72361,36.71447,21,20,50,
Aleppo,36.19942,37.16294,21,20,52,
Antioch,36.2026,36.16036,21,20,53,
Nicosia,35.17432,33.37098,21,20,55,
Ankara,39.92513,32.83697,21,20,57,
Sebastopol,44.61589,33.52411,21,20,59,
Sochi,43.402,39.95591,21,21,01,
Krasnodar,45.0244,38.97139,21,21,03,
Rostov-on-Don,47.23794,39.69956,21,21,05,
Kharkiv,49.99001,36.22714,21,21,07,
Voronezh,51.65743,39.21622,21,21,09,
The Kremlin,55.74987,37.61571,21,21,12,
Moscow,55.75252,37.6231,21,21,13,
Murmansk,68.9747,33.06082,21,21,16,
Saint Petersburg,59.94041,30.31381,21,21,19,
Helsinki,60.17172,24.94139,21,21,21,
Tallinn,59.43735,24.74511,21,21,22,
Riga,56.94962,24.10541,21,21,24,
Vilnius,54.68537,25.28743,21,21,26,
Minsk,53.90257,27.56148,21,21,28,
Kiev,50.45577,30.52261,21,21,30,
Odessa,46.48727,30.73928,21,21,32,
Bucharest,44.42749,26.08737,21,21,34,
Istanbul,41.00849,28.98011,21,21,36,
Troy,39.95743,26.23889,21,21,37,
Izmir,38.42841,27.14535,21,21,38,
Ephesus,37.94109,27.34245,21,21,39,
Halicarnassus,37.03789,27.42411,21,21,40,
Rhodes,36.45102,28.22578,21,21,41,
Knossos,35.29788,25.16312,21,21,42,
Athens,37.97149,23.72662,21,21,43,
Thebes,38.3207,23.31764,21,21,44,
Corinth,37.90602,22.87921,21,21,45,
Argos,37.6306,22.72147,21,21,46,
Sparta,37.08225,22.42357,21,21,47,
Olympia,37.6379,21.63021,21,21,48,
Ithica,38.46067,20.63788,21,21,49,
Thessaloniki,40.63235,22.94086,21,21,51,
Sofia,42.69582,23.33283,21,21,53,
Pristina,42.65404,21.15316,21,21,54,
Skopje,41.9939,21.43062,21,21,56,
Tirana,41.32846,19.81831,21,21,58,
Podgorica,42.43078,19.2603,21,22,00,
Dubrovnik,42.64069,18.11031,21,22,01,
Sarajevo,43.85968,18.43125,21,22,03,
Belgrade,44.80513,20.47072,21,22,05,
Budapest,47.50718,19.04561,21,22,07,
Krakow,50.06148,19.93798,21,22,09,
Brest,52.09834,23.76242,21,22,11,
Warsaw,52.23186,21.00617,21,22,13,
Kaliningrad,54.70637,20.51194,21,22,15,
Stockholm,59.32682,18.07172,21,22,17,
Gothenburg,57.70712,11.96682,21,22,19,
Malmö,55.60478,12.98746,21,22,21,
Copenhagen,55.68054,12.58591,21,22,22,
Berlin,52.51629,13.37773,21,22,24,
Leipzig,51.33636,12.37251,21,22,26,
Dresden,51.05158,13.74063,21,22,28,
Prague,50.0877,14.42119,21,22,30,
Wroclaw,51.10962,17.03209,21,22,32,
Bratislava,48.14343,17.1007,21,22,34,
Vienna,48.20337,16.36922,21,22,36,
Zagreb,45.80945,15.97004,21,22,38,
Split,43.50919,16.44066,21,22,40,
Ljubliana,46.05075,14.50808,21,22,42,
Trieste,45.64919,13.77167,21,22,43,
Salzburg,47.8,13.04355,21,22,45,
Venice,45.43411,12.33837,21,22,47,
Padua,45.40727,11.87527,21,22,48,
San Marino,43.93673,12.44648,21,22,49,
Bologna,44.49373,11.3431,21,22,50,
Verona,45.44356,10.99822,21,22,51,
Munich,48.13725,11.57555,21,22,53,
Nuremburg,49.45395,11.07729,21,22,55,
Hanover,52.37314,9.74011,21,22,57,
Hamburg,53.55044,9.99238,21,22,58,
Lübeck,53.8679,10.68504,21,22,59,
Billund,55.73063,9.11497,21,23,01,
Oslo,59.91268,10.74646,21,23,03,
Bergen,60.39942,5.31783,21,23,05,
Stavenger,58.97267,5.73235,21,23,07,
Bremen,53.07614,8.8082,21,23,09,
Dortmund,51.51129,7.46632,21,23,11,
Essen,51.45653,7.01116,21,23,12,
Düsseldorf,51.22826,6.77162,21,23,13,
Cologne,50.94139,6.95821,21,23,14,
Bonn,50.73433,7.09914,21,23,15,
Frankfurt,50.11043,8.68214,21,23,16,
Strasbourg,48.58191,7.75103,21,23,17,
Stuttgart,48.77861,9.1798,21,23,18,
Konstanz,47.66344,9.17546,21,23,19,
Vaduz,47.13959,9.52445,21,23,20,
Zurich,47.37005,8.54399,21,23,21,
Basel,47.55648,7.59239,21,23,22,
Bern,46.94799,7.4478,21,23,23,
Interlaken,46.68693,7.84963,21,23,24,
Lauterbrunnen,46.59832,7.90775,21,23,25,
Milan,45.46418,9.1919,21,23,26,
Genoa,44.40718,8.93403,21,23,27,
Pisa,43.72304,10.39662,21,23,28,
Florence,43.77319,11.25689,21,23,29,
Vatican City,41.90225,12.45726,21,23,31,Vey Nice!
Rome,41.8914,12.48658,21,23,32,
Ostia,41.75428,12.28816,21,23,33,
Laurentum,41.71106,12.34691,21,23,34,
Naples,40.8504,14.25761,21,23,36,
Pompeii,40.75195,14.486,21,23,37,
Bari,41.12848,16.86644,21,23,39,
Gallipoli,40.05551,17.97831,21,23,40,
Croton,39.08161,17.13133,21,23,41,
Syracuse,37.06294,15.29438,21,23,42,
Valletta,35.89563,14.50829,21,23,43,
Palermo,38.11569,13.36145,21,23,45,
Ajaccio,41.91803,8.73855,21,23,47,
Cagliari,39.216,9.11642,21,23,48,
Carthage,36.85774,10.32939,21,23,50,
Tunis,36.80639,10.18078,21,23,51,
Tripoli,32.89991,13.17573,21,23,52,
N'Djamena,12.1104,15.0508,21,23,54,
Bangui,4.36197,18.58293,21,23,56,
Windhoek,-22.56778,17.0873,21,23,59,
Cape Town,-33.92211,18.42507,22,0,01,
Luanda,-8.80783,13.22325,22,0,04,
Kinshasa,-4.3744,15.34544,22,0,05,
Brazzaville,-4.29114,15.26585,22,0,06,
Yaounde,3.8606,11.51589,22,0,08,
Libreville,0.39256,9.44243,22,0,09,
Abuja,9.06738,7.50988,22,0,11,
Lagos,6.47637,3.36942,22,0,12,
Porto-Novo,6.47314,2.61634,22,0,13,
Lomé,6.12991,1.21594,22,0,14,
Accra,5.54759,-0.1926,22,0,15,
Ouagadougou,12.37418,-1.52607,22,0,16,
Niamey,13.52217,2.13307,22,0,18,
Algiers,36.78459,3.06246,22,0,20,
Ibiza,38.90607,1.4364,22,0,21,
Palma,39.56746,2.64824,22,0,22,
Ciutadella,40.00168,3.83741,22,0,23,
Marseille,43.28398,5.37123,22,0,25,
Nice,43.69719,7.27566,22,0,26,
Monaco,43.73911,7.42808,22,0,27,
Turin,45.07098,7.68582,22,0,28,
Lausanne,46.52265,6.63518,22,0,29,
Geneva,46.20123,6.14821,22,0,30,
Grenoble,45.18898,5.7246,22,0,31,
Lyon,45.75785,4.83219,22,0,32,
Dijon,47.32132,5.04135,22,0,33,
Luxembourg,49.6106,6.1305,22,0,35,
Liege,50.64035,5.57188,22,0,36,
Maastricht,50.85137,5.69139,22,0,37,
Eindhoven,51.43937,5.47849,22,0,38,
Utrecht,52.09071,5.12137,22,0,39,
Amsterdam,52.37312,4.89255,22,0,40,
The Hague,52.07898,4.31931,22,0,41,
Rotterdam,51.92286,4.4795,22,0,42,
Antwerp,51.22122,4.39973,22,0,43,
Brussels,50.84174,4.3622,22,0,44,
Waterloo,50.67971,4.4044,22,0,45,
Charleroi,50.41164,4.44453,22,0,46,
Reims,49.26062,4.03,22,0,47,
Ghent,51.054,3.72291,22,0,49,
Bruges,51.20875,3.22437,22,0,50,
Roubaix,50.69073,3.17408,22,0,51,
Lille,50.63655,3.06993,22,0,52,
Dunkirk,51.03776,2.37638,22,0,53,
Paris,48.85301,2.34988,22,0,55,
Eiffel Tower,48.85826,2.2945,22,0,56,
Orleans,47.90184,1.9103,22,0,57,
Montpellier,43.6108,3.87664,22,1,00,
Perpignan,42.69844,2.89535,22,1,01,
Carcassonne,43.21804,2.35183,22,1,02,
Toulouse,43.60436,1.44336,22,1,03,
Andorra la Vella,42.50874,1.52942,22,1,04,
Barcelona,41.40359,2.17436,22,1,05,
Valencia,39.46979,-0.37722,22,1,07,
Cartagena,37.59937,-0.98408,22,1,08,
Murcia,37.98402,-1.12861,22,1,09,
Zaragoza,41.65466,-0.88196,22,1,11,
Pau,43.30425,-0.37483,22,1,12,
San Sebastian,43.32388,-1.9745,22,1,13,
Moliets Plage,43.85244,-1.39186,22,1,14,
Bordeaux,44.83763,-0.57777,22,1,15,
Poitiers,46.58323,0.3439,22,1,16,
Caen,49.1818,-0.373,22,1,18,
Le Havre,49.4941,0.10784,22,1,19,
Rouen,49.44021,1.09493,22,1,20,
Boulogne-sur-mer,50.72596,1.615,22,1,21,
Calais,50.95269,1.85455,22,1,22,
Dover,51.12513,1.31343,22,1,23,
Norwich,52.62699,1.30651,22,1,25,
Cambridge,52.20371,0.12403,22,1,26,
Epping,51.69371,0.11385,22,1,27,
Beckton,51.5143,0.06082,22,1,28,
Woolwich,51.49147,0.06667,22,1,29,
Dangleway,51.49978,0.00833,22,1,30,
Layton,51.55682,-0.00514,22,1,31,
Meridian Water,51.60809,-0.04685,22,1,32,
Enfield Lock,51.67029,-0.0287,22,1,33,
Cockfosters,51.65136,-0.14854,22,1,34,
City of London,51.50867,-0.08564,22,1,35,
Croydon,51.37976,-0.12379,22,1,36,
Bowis' Christmas Party,51.50329,-0.12764,22,1,37,Save some wine and cheese for me Bowis!
Chinatown,51.51178,-0.13115,22,1,38,
CLASSIFIED,51.52145,-0.13881,22,1,39,
Camden,51.53942,-0.14271,22,1,40,
Battersea Power Station Station,51.47962,-0.143,22,1,41,
Huxley,51.4989,-0.17932,22,1,42,
Queensway,51.51048,-0.18725,22,1,43,
Paddington,51.51647,-0.17679,22,1,44,
Kensal Green,51.52913,-0.21755,22,1,45,
Acton,51.52341,-0.25975,22,1,46,
North Ealing,51.51753,-0.28885,22,1,47,
Ealing,51.5149,-0.30105,22,1,48,
Harrow-on-the-Hill,51.57939,-0.33698,22,1,49,
Watford,51.65848,-0.41428,22,1,50,
West Ruislip,51.56972,-0.43772,22,1,51,
A30,51.4755,-0.39577,22,1,52,
Wraysbury,51.45748,-0.55373,22,1,53,
Chesham,51.7052,-0.61109,22,1,54,
Northampton,52.23706,-0.90633,22,1,55,
Leicester,52.63123,-1.12518,22,1,56,
Nottingham,52.94706,-1.147003,22,1,57,
Sheffield,53.37837,-1.46216,22,1,58,
Leeds,53.79507,-1.54768,22,1,59,
York,53.96229,-1.0821,22,2,00,
Middlesborough,54.57931,-1.23442,22,2,01,
Newcastle,54.98959,-1.53276,22,2,02,
Berwick-upon-Tweed,55.77401,-2.0108,22,2,03,
Aberdeen,57.14378,-2.09925,22,2,04,
Lerwick,60.15313,-1.14272,22,2,06,
Kirkwall,58.98162,-2.96078,22,2,07,
Edinburgh,55.94866,-3.20042,22,2,09,
Glasgow,55.86002,-4.25789,22,2,10,
Carlisle,54.89094,-2.93327,22,2,11,
Manchester,53.47746,-2.2312,22,2,13,
Liverpool,53.40794,-2.97848,22,2,14,
Stoke,53.008,-2.18106,22,2,15,
Ironbridge,52.62732,-2.48544,22,2,16,
Stourbridge Junction,52.44756,-2.13395,22,2,17,
Birmingham,52.47782,-1.89894,22,2,18,
Dorridge,52.37406,-1.75207,22,2,19,
Bicester,51.89262,-1.1492,22,2,20,
Oxford,51.75306,-1.25002,22,2,21,
Chocky City,51.06494,-1.79729,22,2,22,
Southampton,50.9077,-1.41364,22,2,23,
Portsmouth,50.79555,-1.10851,22,2,24,
Nantes,47.21618,-1.54939,22,2,26,
Rennes,48.11273,-1.67785,22,2,27,
St Helier,49.18387,-2.10565,22,2,28,
St Peter Port,49.45468,-2.53628,22,2,29,
Bath,51.38096,-2.35948,22,2,31,
REDACTED,51.89956,-2.12436,22,2,32,
Glozza,51.86734,-2.24674,22,2,33,
Wozza,52.19472,-2.20945,22,2,34,
Hereford,52.06124,-2.70851,22,2,35,
Lydney,51.71585,-2.53146,22,2,36,
Pilning,51.55655,-2.62712,22,2,37,
Brizzle,51.44983,-2.58087,22,2,38,
Taunton,51.02201,-3.10336,22,2,39,
Exeter,50.73741,-3.53254,22,2,40,
Torquay,50.45793,-3.52409,22,2,41,
Brest,48.39147,-4.48481,22,2,43,
Okehampton,50.73246,-3.99633,22,2,45,
Barry Island,51.3923,-3.27374,22,2,46,
IKEA,51.46281,-3.18827,22,2,47,
Cardiff,51.47599,-3.17907,22,2,48,
Nantgarw,51.56343,-3.27503,22,2,49,
Pontypridd,51.60421,-3.33945,22,2,50,
Newport,51.58874,-3.00599,22,2,51,
Gilfach Fargoed,51.68416,-3.22733,22,2,52,
Ebbw Vale,51.77661,-3.20247,22,2,53,
Rhymney,51.75884,-3.28958,22,2,54,
Merthyr Tydfil,51.74566,-3.37683,22,2,55,
Aberdare,51.71451,-3.44185,22,2,56,
Treherbert,51.67202,-3.53599,22,2,57,
Bridgend,51.49563,-3.52445,22,2,58,
Port Talbot,51.60558,-3.81713,22,2,59,
Baglan,51.62299,-3.81336,22,3,00,
Neath,51.65891,-3.7986,22,3,01,
Neath College,51.66691,-3.81364,22,3,02,
Bryncoch,51.66836,-3.81675,22,3,03,
Swansea,51.6252,-3.94104,22,3,04,
Ffynone,51.61996,-3.96005,22,3,05,
Cockett,51.63618,-3.98187,22,3,06,
Sugar Loaf,52.08208,-3.68586,22,3,07,
Cynghordy,52.06145,-3.73936,22,3,08,
Llandeilo,51.87999,-4.01184,22,3,09,
Ffairfach,51.87275,-3.99298,22,3,10,
Carmarthen,51.85338,-4.30594,22,3,11,
Tenby,51.67179,-4.69475,22,3,12,
Fishguard,52.01075,-4.98601,22,3,13,
Milford Haven,51.715,-5.03813,22,3,14,
Pembroke Dock,51.69393,-4.93798,22,3,15,
Pembroke,51.67661,-4.91998,22,3,16,
DELETED,50.41176,-5.06301,22,3,18,
Newquay,50.41153,-5.06313,22,3,19,
Penryn,50.17106,-5.12799,22,3,20,
Camborne,50.20885,-5.30623,22,3,21,
Penzance,50.12181,-5.53276,22,3,22,
Dublin,53.34978,-6.26028,22,3,24,
Belfast,54.59636,-5.93003,22,3,25,
Cork,51.90028,-8.473,22,3,27,
Madrid,40.41541,-3.70738,22,3,30,
Granada,37.17677,-3.5899,22,3,32,
Cordoba,37.88475,-4.7764,22,3,33,
Fez,34.04727,-5.00538,22,3,34,
Gilbraltar,36.1439,-5.34953,22,3,35,
Tangier,35.7874,-5.8137,22,3,36,
Seville,37.37707,-5.98709,22,3,37,
Porto,41.14566,-8.6146,22,3,39,
Lisbon,38.70987,-9.13257,22,3,40,
Rabat,34.01769,-6.8369,22,3,42,
Casablanca,33.58032,-7.60547,22,3,43,
Marrakesh,31.62176,-7.98152,22,3,44,
Timbuktu,16.77234,-3.00721,22,3,47,
Bamako,12.64688,-7.99318,22,3,49,
Abidjan,5.31675,-4.01953,22,3,51,
Jamestown,-15.92478,-5.71822,22,3,53,
Monrovia,6.3166,-10.8041,22,3,54,
Freetown,8.48933,-13.20885,22,3,55,
Conakry,9.53307,-13.68423,22,3,56,
Bissau,11.86319,-15.58432,22,3,57,
Banjul,13.45559,-16.57588,22,3,58,
Dakar,14.66956,-17.43201,22,3,59,
Nouakchott,18.09,-15.97177,22,4,00,
Gran Canaria,28.14879,-15.42081,22,4,02,
Tenerife,28.46722,-16.24719,22,4,03,
Funchal,32.64723,-16.905089,22,4,04,
Reykjavik,64.14188,-21.92694,22,4,08,
Ponta Delgada,37.73946,-25.66841,22,4,11,
Praia,14.91644,-23.50944,22,4,14,
Recife,-8.05698,-34.88147,22,4,17,
Fortaleza,-3.72472,-38.52444,22,4,19,
Salvador,-12.97929,-38.51416,22,4,21,
Rio de Janeiro,-22.95191,-43.21046,22,4,23,
Belo Horizonte,-19.92274,-43.94515,22,4,24,
Brasilia,-15.79834,-47.87554,22,4,25,
Sao Paulo,-23.5513,-46.63449,22,4,27,
Porto Alegre,-30.03388,-51.23019,22,4,29,
Montevideo,-34.90652,-56.19966,22,4,31,
Halley VI,-75.56742,-25.51655,22,4,35,
Stanley,-51.69153,-57.86769,22,4,38,
Buenos Aires,-34.60837,-58.37218,22,4,41,
Asuncion,-25.28702,-57.65497,22,4,43,
Belem,-1.4551,-48.50327,22,4,46,
Kourou,5.24027,-52.76843,22,4,48,Good Luck Webb!
Paramaribo,5.82857,-55.15403,22,4,49,
Georgetown,6.80489,-58.15061,22,4,50,
Manaus,-3.13029,-60.02326,22,4,52,
Bridgetown,13.105,-59.62262,22,4,54,
Port of Spain,10.65323,-61.51052,22,4,55,
St George's,12.0495,-61.75378,22,4,56,
Kingstown,13.15486,-61.22565,22,4,57,
Castries,14.01179,-60.98938,22,4,58,
Fort-de-France,14.60548,-61.06594,22,4,59,
Pointe-à-Pitre,16.23649,-61.53454,22,5,00,
St. John's,17.12261,-61.8419,22,5,01,
St. John's,47.57102,-52.70696,22,5,05,
Nuuk,64.17704,-51.7463,22,5,08,
Iquluit,63.75025,-68.52334,22,5,10,
Charlottetown,46.23496,-63.12612,22,5,13,
Halifax,44.64742,-63.5803,22,5,14,
Saint John,45.27364,-66.05805,22,5,15,
Hamilton,32.29482,-64.77707,22,5,18,
Charlotte Amalie,18.3406,-64.92976,22,5,21,
San Juan,18.4661,-66.11207,22,5,22,
Santo Domingo,18.47862,-69.8682,22,5,24,
Port-au-Prince,18.54326,-72.3388,22,5,26,
Oranjestad,12.52083,-70.03809,22,5,28,
Willemstad,12.10734,-68.93258,22,5,29,
Caracas,10.50722,-66.92683,22,5,31,
La Paz,-16.49657,-68.13736,22,5,34,
Sucre,-19.04788,-65.2596,22,5,35,
Cordoba,-31.4286,-64.18483,22,5,37,
Ushuaia,-54.80738,-68.30377,22,5,40,
Punta Arenas,-53.16264,-70.90807,22,5,41,
Santiago,-33.44293,-70.65385,22,5,44,
Cusco,-13.53176,-71.96836,22,5,47,
Machu Picchu,-13.16299,-72.54499,22,5,48,
Lima,-12.06829,-77.0412,22,5,50,
Quito,-0.22008,-78.51208,22,5,52,
Bogota,4.65775,-74.09333,22,5,54,
Medellin,6.24392,-75.57366,22,5,55,
Cartagena,10.42252,-75.53928,22,5,57,
Santiago de Cuba,20.02586,-75.81905,22,5,59,
Nassau,25.07772,-77.34047,22,6,01,
Kingston,17.97127,-76.79282,22,6,03,
Panama City,8.95248,-79.53477,22,6,05,
San José,9.93289,-84.07221,22,6,07,
Managua,12.15632,-86.27215,22,6,09,
Havana,23.13525,-82.35926,22,6,11,
Key West,24.55045,-81.80068,22,6,12,
Miami,25.77226,-80.19137,22,6,14,
Kennedy Space Centre,28.60824,-80.60416,22,6,15,
Orlando,28.37533,-81.54939,22,6,16,
Tampa,27.95305,-82.45057,22,6,17,
Saint Petersburg,27.77269,-82.63778,22,6,18,
Jacksonville,30.32468,-81.65993,22,6,20,
Savannah,32.06924,-81.09559,22,6,22,
Augusta,33.47563,-81.96647,22,6,24,
Charleston,32.77685,-79.92686,22,6,26,
Charlotte,35.22734,-80.84219,22,6,28,
Winston-Salem,36.08715,-80.24253,22,6,29,
Greensboro,36.07398,-79.78954,22,6,30,
Raleigh,35.78047,-78.63912,22,6,31,
Virginia Beach,36.84541,-75.97376,22,6,33,
Norfolk,36.8472,-76.28864,22,6,34,
Newport News,36.97692,-76.43232,22,6,35,
Yorktown,37.23342,-76.50499,22,6,36,
Williamsburg,37.27147,-76.70025,22,6,37,
Jamestown,37.2085,-76.77877,22,6,38,
Richmond,37.53879,-77.43362,22,6,39,
Alexandria,38.80341,-77.03942,22,6,41,
Arlington,38.88113,-77.07261,22,6,42,
Washington DC,38.89773,-77.03656,22,6,43,Merry Christmas Joe!
Baltimore,39.28597,-76.60956,22,6,44,
Dover,39.15652,-75.52289,22,6,46,
Wilmington,39.74582,-75.54708,22,6,48,
Philadelphia,39.9527,-75.16347,22,6,49,
Scranton,41.40813,-75.66235,22,6,51,
Newark,40.73929,-74.16945,22,6,53,
Jersey City,40.71777,-74.04309,22,6,54,
Brooklyn,40.69013,-73.98251,22,6,55,
Manhattan,40.7116,-74.01328,22,6,56,
New York,40.74828,-73.98569,22,6,57,
Yonkers,40.93215,-73.89798,22,6,58,
Bridgeport,41.17856,-73.1908,22,6,59,
New Haven,41.30787,-72.92652,22,7,00,
Hartford,41.76609,-72.67271,22,7,01,
Springfield,42.10123,-72.58868,22,7,02,
Worcester,42.26223,-71.80079,22,7,03,
Providence,41.83096,-71.41495,22,7,04,
Plymouth,41.95807,-70.66212,22,7,05,
Boston,42.35873,-71.05747,22,7,06,
Cambridge,42.35979,-71.09207,22,7,07,
Manchester,42.98868,-71.46221,22,7,08,
Concord,43.20699,-71.53802,22,7,09,
Portland,43.65737,-70.25892,22,7,11,
Quebec,46.808674,-71.21435,22,7,13,
Burlington,44.47653,-73.21352,22,7,15,
Albany,42.65239,-73.75708,22,7,17,
Montreal,45.50451,-73.55612,22,7,19,
Ottawa,45.42513,-75.69987,22,7,21,
Buffalo,42.88642,-78.87818,22,7,23,
Toronto,43.6426,-79.3871,22,7,24,
Hamilton,43.25903,-79.87228,22,7,25,
London,42.98255,-81.25038,22,7,26,
Erie,42.12972,-80.08453,22,7,28,
Pittsburgh,40.44072,-80.00259,22,7,30,
Cleveland,41.49969,-81.69367,22,7,32,
Columbus,39.96138,-82.9991,22,7,34,
Toledo,41.65529,-83.53712,22,7,36,
Detroit,42.33156,-83.04659,22,7,38,You're not getting shit Detroit!
Lansing,42.73365,-84.55539,22,7,40,
Grand Rapids,42.96837,-85.67735,22,7,42,
Fort Wayne,41.07987,-85.13937,22,7,44,
Cincinnati,39.10885,-84.51744,22,7,46,
Lexington,38.04897,-84.5002,22,7,48,
Atlanta,33.7491,-84.38813,22,7,51,
Tallahassee,30.43813,-84.28211,22,7,53,
Mobile,30.69223,-88.04256,22,7,55,
Montgomery,32.3778,-86.30051,22,7,57,
Birmingham,33.51231,-86.80717,22,7,59,Y'all go fuck yer sister or someat!
Huntsville,34.7108,-86.65273,22,8,01,
Nashville,36.16579,-86.78428,22,8,03,
Louisville,38.25192,-85.75864,22,8,05,
Indianapolis,39.76855,-86.15803,22,8,07,
Chicago,41.8988,-87.62302,22,8,09,
Milwaukee,43.04175,-87.90975,22,8,11,
Madison,43.07478,-89.38419,22,8,13,
Springfield,39.79718,-89.64513,22,8,15,
St Louis,38.62484,-90.18494,22,8,17,
Memphis,35.14877,-90.05145,22,8,19,
Jackson,32.3038,-90.18206,22,8,21,
Baton Rouge,30.4571,-91.18736,22,8,23,
New Orleans,29.94828,-90.07034,22,8,25,
Mérida,20.9671,-89.62373,22,8,28,
Belize City,17.49145,-88.18145,22,8,30,
Tegucigalpa,14.10577,-87.20464,22,8,32,
San Salvador,13.6986,-89.19102,22,8,34,
Galapagos,-0.37164,-91.54006,22,8,37,
Guatemala City,14.64185,-90.51323,22,8,40,
Shreveport,32.51208,-93.74967,22,8,43,
Little Rock,34.7466,-92.28914,22,8,45,
Kansas City,39.0855,-94.58564,22,8,47,
Des Moines,41.59121,-93.60351,22,8,49,
Cedar Rapids,41.97814,-91.6637,22,8,51,
Saint Paul,44.95524,-93.10222,22,8,53,
Minneapolis,44.97735,-93.26546,22,8,54,
Winnepeg,49.88914,-97.12851,22,8,56,
Fargo,46.87824,-96.78727,22,8,58,
Sioux Falls,43.5515,-96.72871,22,9,00,
Lincoln,40.80803,-96.69967,22,9,01,
Omaha,41.25736,-95.93919,22,9,03,
Lawrence,38.97126,-95.23591,22,9,04,
Topeka,39.04811,-95.67817,22,9,05,
Wichita,37.68754,-97.32793,22,9,07,
Tulsa,36.15281,-95.99631,22,9,09,
Oklahoma City,35.46901,-97.52193,22,9,11,
Plano,33.01969,-96.69924,22,9,13,
Dallas,32.7834,-96.79596,22,9,14,
Arlington,32.73532,-97.10786,22,9,15,
Fort Worth,32.75753,-97.33319,22,9,16,
Houston,29.76033,-95.3641,22,9,18,
Austin,30.27459,-97.74038,22,9,20,
San Antonio,29.42461,-98.49348,22,9,22,
Corpus Christi,27.80993,-97.39428,22,9,24,
Boca Chica,25.99783,-97.15633,22,9,26,
Laredo,27.50056,-99.50269,22,9,28,
Monterrey,25.66844,-100.31009,22,9,30,
Puebla,19.04372,-98.19821,22,9,32,
Mexico City,19.43259,-99.13326,22,9,33,
Toluca,19.29252,-99.65689,22,9,34,
Querétaro,20.5879,-100.38786,22,9,35,
León,21.12184,-101.68248,22,9,36,
Easter Island,-27.14398,-109.33054,22,9,41,
Guadalajara,20.67698,-103.34699,22,9,46,
Torreón,25.54073,-103.45324,22,9,48,
Chihuahua,28.63639,-106.07671,22,9,50,
Ciudad Juárez,31.73537,-106.47907,22,9,52,
El Paso,31.75968,-106.48855,22,9,53,
Albuquerque,35.08742,-106.65059,22,9,55,
Colorado Springs,38.83037,-104.82285,22,9,57,
Aurora,39.71154,-104.81438,22,9,59,
Denver,39.73929,-104.98481,22,10,00,
Billings,45.78577,-108.50714,22,10,02,
Regina,50.44803,-104.61231,22,10,04,
Saskatoon,52.13066,-106.66028,22,10,06,
Yellowknife,62.45447,-114.3768,22,10,09,
Edmonton,53.54402,-113.48999,22,10,12,
Calgary,51.04115,-114.07022,22,10,14,
Spokane,47.65641,-117.41537,22,10,16,
Boise,43.61776,-116.1996,22,10,18,
Salt Lake City,40.7596,-111.88681,22,10,20,
Provo,40.23266,-111.65934,22,10,21,
Tucson,32.2229,-110.97382,22,10,23,
Mesa,33.41412,-111.83039,22,10,25,
Phoenix,33.44813,-112.09455,22,10,26,
Lake Havasu City,34.47162,-114.34755,22,10,28,
Las Vegas,36.11251,-115.17206,22,10,30,
Mexicali,32.64065,-115.47231,22,10,32,
Tijuana,32.52878,-117.0356,22,10,34,
San Diego,32.72622,-117.15436,22,10,35,
Riverside,33.97904,-117.37514,22,10,37,
Irvine,33.68618,-117.82643,22,10,38,
Santa Ana,33.74849,-117.87154,22,10,39,
Anaheim,33.81213,-117.91895,22,10,40,
Long Beach,33.75288,-118.18976,22,10,41,
Hawthorne,33.91991,-118.32684,22,10,42,
Los Angeles,34.10201,-118.34101,22,10,43,
Bakersfield,35.37679,-119.00908,22,10,45,
Fresno,36.7364,-119.78919,22,10,47,
San Jose,37.33771,-121.88597,22,10,49,
San Francisco,37.79512,-122.40273,22,10,51,
Oakland,37.8036,-122.27691,22,10,52,
Stockton,37.95779,-121.28775,22,10,54,
Sacramento,38.57658,-121.49326,22,10,56,
Reno,39.52821,-119.81372,22,10,58,
Portland,45.5162,-122.68359,22,11,00,
Seattle,47.62054,-122.34927,22,11,02,
Redmond,47.6424,-122.13693,22,11,03,
Vancouver,49.28733,-123.11706,22,11,05,
Juneau,58.30204,-134.41049,22,11,10,
Whitehorse,60.71336,-135.04824,22,11,13,
Fairbanks,64.85613,-147.81951,22,11,17,
Anchorage,61.21931,-149.90407,22,11,20,
Papeete,-17.54012,-149.56718,22,11,35,
Honolulu,21.30738,-157.8572,22,11,45,
Nome,64.49706,-165.40547,22,11,00,
The North Pole,80,-179.999,22,12,00,
